~VERSION INFORMATION
 VERS.               2.10:   CWLS LOG ASCII STANDARD - VERSION 2.10
 WRAP.                 NO:   ONE LINE PER DEPTH STEP
~WELL INFORMATION
#MNEM.UNIT      DATA TYPE    INFORMATION
#----------   ------------   ------------------------------
 STRT.M         2800.0000:   Start depth
 STOP.M         3210.0000:   Stop depth
 STEP.M            0.2000:   Step length
 NULL.          -999.2500:   No value
 WELL.                   :   Well
 FLD .                   :   Field
 LOC .                   :   Location
 SRVC.                   :   Service company
 DATE.        12-JAN-2023:   logging date
 WSTA.           Location:   Well status
~CURVE INFORMATION
#MNEM.UNIT       API CODE    CURVE DESCRIPTION
#----------   ------------   ------------------------------
 DEPT.M                  :   DEPTH
 DWTC.V/V                :   Dry Weight Total Carbon (Borehole corrected) {F13.4}
 WCLAY.V/V               :   Dry Weight of Clay
 WCLC.V/V                :   Dry Weight Calcite (Inelastic Capture Closure) {F13.4}
 WDOL.V/V                :   Dry Weight Dolomite (Inelastic Capture Closure) {F13.4}
 WPYR.V/V                :   WEIGHT FRACTION PYRITE
 WQFM.V/V                :   WEIGHT FRACTION QUARTZ AND FELDSPAR AND MICA
 ECGR.GAPI               :   GAMMA-RAY {F13.5}
 HCGR.GAPI               :   (HNGS-BA) (6IN) GAMMA RAY CONTRIBUTION FROM THORIUM AND POTASSIUM
 SGR .GAPI               :   (HNGS-BA) (6IN) SPECTROSCOPY GAMMA RAY
 HURA.PPM                :   URANIUM CONCENTRATION
 HTHO.PPM                :   THORIUM CONCENTRATION
 HFK .V/V                :   POTASSIUM CONCENTRATION
 WTOC.V/V                :   Dry Weight Total Organic Carbon
 WCARB.V/V               :   Weight fraction of carbonate
 WQTZ.V/V                :   Weight fraction of quartz
 RHGE.KG/M3              :   MATRIX DENSITY FROM ELEMENTAL CONCENTRATIONS - SPECTROLITH WALK2 MODEL 
 HCAL1.MM                :   Caliper  (HDRS-H[1])  (1IN) CALIPER
 HCAL2.MM                :   Caliper  (HDRS-H[2])  (1IN) CALIPER
 HD1_PPC1.MM             :   PPC1 ELLIPSE HOLE DIAMETER 1 {F14.5}
 HD2_PPC1.MM             :   PPC1 ELLIPSE HOLE DIAMETER 2 {F14.5}
 GR_ND.GAPI  42 310 00 00:   Gamma Ray
 SP  .MV     05 010 01 00:   Spontaneous Potential
 DTP .US/M   60 520 00 00:   Compressional Wave
 DEN .KG/M3  42 350 01 00:   HRDD STANDARD RESOLUTION FORMATION DENSITY
 PE  .B/E                :   HRDD Standard Resolution Formation Photoelectric Factor [F12.3]
 HDRA.KG/M3              :   HRDD DENSITY CORRECTION
 PDS .V/V                :   DENSITY POROSITY WITH SANDSTONE CALIBRATION
 PDL .V/V                :   DENSITY POROSITY WITH LIMESTONE CALIBRATION
 POS .V/V                :   NEUTRON POROSITY WITH SANDSTONE CALIBRATION
 POL .V/V                :   NEUTRON POROSITY WITH LIMESTONE CALIBRATION
 SPHI.V/V                :   Sonic Porosity [F12.3]
 PHIZ.V/V                :   INTERGRANULAR POROSITY
 RS  .OHMM               :   ARRAY INDUCTION FOUR FOOT RESISTIVITY A20
 RM  .OHMM               :   ARRAY INDUCTION FOUR FOOT RESISTIVITY A30
 RD  .OHMM   07 120 46 00:   Deep Induction Resistivity
~PARAMETER INFORMATION
#MNEM.UNIT          VALUE    DESCRIPTION
#----------   ------------   ------------------------------
 EKB .M          516.8000:   Kelly bushing
 EGL .M          518.9000:   Ground level
 EDF .M          516.5000:   Drilling floor
 EPD .M          518.9000:   Permanent datum
 TD  .M            0.0000:   Total depth
 NRUN.                  1:   Number of Runs
#--RUN 1---   ------------   The following are for Run 1---
 RUN .                  1:   Run 1
 DATE.        12-JAN-2023:   Logging Date
 TMAX.degC      105.00000:   (Borehole)      Max Recorded Temp
~Tops
SCATTER                           612.0
GARBUTT                           659.0
FANTASQUE                         696.5
MATTSON                           704.0
DEBOLT                            734.0
SHUNDER                           989.0
PEKISKO                          1109.0
BANFF                            1160.0
EXSHAW                           1690.0
KOTCHO                           1720.0
TETCHO                           1974.5
TROUT RIVER                      1986.0
KAKISA                           2051.5
FORT SIMPSON                     2101.0
MUSKWA                           2949.5
OTTER PARK                       3026.0
KLUA                             3083.5
EVIE                             3098.0
KEG RIVER                        3148.0
~A  DEPTH     DWTC      WCLAY       WCLC       WDOL       WPYR       WQFM       ECGR       HCGR        SGR       HURA       HTHO        HFK       WTOC      WCARB     WQTZ       RHGE      HCAL1      HCAL2   HD1_PPC1   HD2_PPC1      GR_ND         SP        DTP        DEN         PE       HDRA        PDS        PDL        POS        POL       SPHI       PHIZ         RS         RM         RD
# ...
 3018.4000     0.0579     0.1869     0.0295     0.0214     0.0253     0.7369   154.0007    39.0554   122.6717    11.3700     4.9747     1.2879     0.0505     0.0509     0.3965  2712.5203   200.8415   201.1523   199.8022   199.8764   137.7837 -1228.4066   266.2706  2556.6321     4.1774     9.6526     0.0566     0.0897     0.1338     0.0884     0.1937     0.1079     8.7312     8.8830     8.1962
 3018.6000     0.0562     0.1837     0.0399     0.0028     0.0275     0.7465   150.0924    44.9564   141.5625    13.1454     5.6494     1.4956     0.0500     0.0425     0.3997  2711.7004   200.8461   201.5116   200.0233   199.6485   134.2926 -1229.3068   267.3217  2601.1750     4.5201     8.2537     0.0296     0.0636     0.1566     0.1096     0.1954     0.1131     9.3338     9.7228     8.5875
 3018.8000     0.0536     0.1953     0.0466     0.0009     0.0315     0.7258   188.4496    52.2571   167.6305    15.6925     6.9929     1.6657     0.0475     0.0475     0.3957  2715.4253   200.6031   201.3198   199.7505   199.7207   168.5353 -1227.8531   268.1055  2562.0764     4.5026    -8.2942     0.0533     0.0865     0.1897     0.1405     0.1967     0.1211    10.3352    10.9273     9.4599
 3019.0000     0.0503     0.2179     0.0538     0.0029     0.0341     0.6913   219.6229    55.3601   179.2980    16.8442     7.3708     1.7710     0.0434     0.0567     0.3898  2718.0981   200.0882   201.2295   199.7580   199.8193   196.4388 -1225.2157   268.4974  2504.8022     4.2090   -23.0736     0.0880     0.1200     0.1660     0.1180     0.1973     0.1237    11.4656    12.0622    10.7814
 3019.2000     0.0473     0.2357     0.0618     0.0054     0.0359     0.6610   220.3978    54.8385   177.2790    16.5765     7.2574     1.7618     0.0388     0.0672     0.3840  2719.9861   200.8587   201.0606   200.0222   199.2525   197.1318 -1217.5468   268.0680  2491.5854     3.9735   -29.3206     0.0960     0.1277     0.1547     0.1074     0.1966     0.1247    12.9919    13.3387    12.2121
 3019.4000     0.0463     0.2389     0.0650     0.0166     0.0373     0.6422   217.7328    56.4438   176.4218    16.2626     7.9666     1.7285     0.0352     0.0816     0.3782  2721.8262   200.6604   200.8617   199.8153   199.4863   194.6425 -1218.7758   267.2516  2512.1113     3.9523   -20.7632     0.0836     0.1157     0.1953     0.1456     0.1953     0.1340    14.5183    14.2177    13.4419
 3019.6000     0.0479     0.2194     0.0669     0.0445     0.0361     0.6331   211.5504    56.1710   170.4844    15.5434     8.0269     1.7033     0.0321     0.1114     0.3663  2725.3965   200.3484   200.7003   200.0169   199.6525   189.2623 -1225.2638   265.3112  2507.5017     3.8952   -15.2482     0.0864     0.1184     0.1998     0.1497     0.1922     0.1403    16.2050    14.9058    14.7196
 3019.8000     0.0523     0.1825     0.0816     0.0884     0.0312     0.6163   200.5875    54.5906   154.7709    13.6125     7.9271     1.6338     0.0294     0.1700     0.3419  2731.7678   200.5106   200.5983   200.0291   199.2619   179.4290 -1223.0446   263.6642  2493.4104     3.7812   -18.3441     0.0949     0.1267     0.1680     0.1196     0.1896     0.1300    17.7198    15.7963    15.8536
 3020.0000     0.0586     0.1465     0.1190     0.1332     0.0250     0.5763   183.4919    51.0718   136.9040    11.6776     7.3791     1.5348     0.0263     0.2522     0.3059  2740.0999   200.6364   200.9318   199.7140   199.2560   164.0762 -1223.8154   260.6264  2534.2520     3.8080   -12.4045     0.0701     0.1028     0.1659     0.1178     0.1844     0.1207    18.6526    16.6526    16.6872
 3020.2000     0.0656     0.1085     0.1768     0.1684     0.0189     0.5274   165.7417    50.4901   124.2486    10.1130     7.5551     1.4729     0.0233     0.3452     0.2636  2749.4729   200.7016   200.5201   199.8960   199.2500   148.2133 -1222.5076   255.9721  2571.8953     3.8922    -2.8103     0.0473     0.0808     0.1708     0.1227     0.1763     0.1154    18.8085    18.0223    17.1541
 3020.4000     0.0719     0.0810     0.2260     0.2101     0.0137     0.4691   151.9463    53.0775   120.1680     9.2515     7.9624     1.5450     0.0207     0.4361     0.2209  2760.8533   200.2005   200.6828   199.7486   199.2594   135.8951 -1222.8513   248.2965  2574.5413     3.8412     0.9546     0.0457     0.0792     0.1677     0.1197     0.1635     0.1135    18.4524    18.4156    18.5487
 3020.6000     0.0744     0.0876     0.2350     0.2372     0.0124     0.4298   146.5818    51.5496   105.7185     7.4572     7.9808     1.4582     0.0196     0.4701     0.2032  2768.4404   200.5348   200.5455   200.0508   199.5587   131.0079 -1221.6577   239.3958  2563.3362     3.6806     0.6134     0.0525     0.0858     0.1609     0.1134     0.1453     0.1075    16.8704    19.0131    18.3914
 3020.8000     0.0736     0.1070     0.2091     0.2435     0.0159     0.4245   125.1456    41.6764    78.4151     5.0813     6.5462     1.1629     0.0206     0.4526     0.2070  2773.6313   200.6859   201.2046   200.0465   199.6788   111.8967 -1221.7747   232.7935  2556.4456     3.6420    -0.6977     0.0567     0.0898     0.1593     0.1123     0.1315     0.0975    17.3855    18.1540    18.5276
 3021.0000     0.0685     0.1513     0.1450     0.2261     0.0245     0.4531    98.4833    29.5861    55.3860     3.5371     4.4823     0.8537     0.0235     0.3711     0.2389  2774.7065   200.7409   201.3878   200.2980   199.9634    88.0603 -1218.4272   225.4005  2571.6494     3.7790    -1.4937     0.0475     0.0809     0.1416     0.0964     0.1155     0.0825    18.4025    18.2527    16.3054
 3021.2000     0.0622     0.1996     0.0919     0.1834     0.0324     0.4929    72.1831    26.8617    50.5946     3.2404     3.8947     0.8049     0.0274     0.2752     0.2795  2767.9619   200.5106   201.5980   199.7095   199.2984    64.5314 -1216.0870   224.4581  2606.9597     4.0114    -1.8752     0.0261     0.0603     0.1116     0.0695     0.1134     0.0678    22.2230    18.2056    15.9157
 3021.4000     0.0542     0.2508     0.0435     0.1252     0.0385     0.5420    58.6029    27.3419    53.8572     3.5663     3.8227     0.8436     0.0302     0.1687     0.3259  2755.5967   200.5108   201.1878   199.8718   199.9287    52.4146 -1218.3099   226.4360  2647.0930     4.1696     0.2071     0.0018     0.0368     0.0821     0.0433     0.1179     0.0562    21.4566    25.8545    16.1395
 3021.6000     0.0457     0.2932     0.0113     0.0763     0.0394     0.5801    61.5446    32.7706    65.4962     4.4463     4.6634     0.9970     0.0311     0.0876     0.3642  2740.4131   200.9550   201.0606   200.0199   199.7645    55.0221 -1220.3304   232.2495  2663.8779     4.2440     1.7196    -0.0084     0.0270     0.0805     0.0424     0.1305     0.0614    20.3419    25.0908    19.0940
 3021.8000     0.0417     0.2876     0.0071     0.0658     0.0368     0.6022    98.2354    43.7583    89.1496     6.1540     6.4097     1.3001     0.0299     0.0730     0.3749  2732.3772   200.9389   201.0507   200.0467   199.6078    87.8695 -1224.2708   237.5415  2654.7480     4.2415     1.3302    -0.0029     0.0323     0.1014     0.0610     0.1416     0.0739    11.3585    14.4422    12.7882
 3022.0000     0.0384     0.2518     0.0060     0.0752     0.0363     0.6307   139.4791    52.3811   108.6707     7.6268     7.4988     1.5860     0.0273     0.0812     0.3776  2728.8743   200.6026   200.7558   200.0467   199.6078   124.7180 -1226.5278   242.0658  2630.3738     4.1021     1.8540     0.0119     0.0466     0.1257     0.0816     0.1506     0.0955     9.5577    11.2148    10.9139
 3022.2000     0.0366     0.2279     0.0083     0.0880     0.0378     0.6380   154.3090    52.8674   113.4649     8.2839     7.1763     1.6678     0.0248     0.0963     0.3752  2729.3286   200.4626   200.7218   200.2569   199.3515   137.9200 -1226.7375   248.6514  2604.9211     3.8688     3.2379     0.0273     0.0615     0.2216     0.1708     0.1632     0.1359     7.9104     8.2269     8.1389
 3022.4000     0.0354     0.2351     0.0179     0.0855     0.0389     0.6227   147.6264    51.1850   112.6309     8.4808     6.6630     1.6633     0.0231     0.1035     0.3738  2728.5637   200.4845   201.0606   199.7149   199.2567   132.0072 -1225.4445   252.7404  2602.1863     3.7813     6.1986     0.0290     0.0631     0.2014     0.1512     0.1707     0.1313     9.9448     8.8174     8.4209
