~VERSION INFORMATION
 VERS.               2.10:   CWLS LOG ASCII STANDARD - VERSION 2.10
 WRAP.                 NO:   ONE LINE PER DEPTH STEP
~WELL INFORMATION
#MNEM.UNIT      DATA TYPE    INFORMATION
#----------   ------------   ------------------------------
 STRT.M         2800.0000:   Start depth
 STOP.M         3210.0000:   Stop depth
 STEP.M            0.2000:   Step length
 NULL.          -999.2500:   No value
 WELL.                   :   Well
 FLD .                   :   Field
 LOC .                   :   Location
 SRVC.                   :   Service company
 DATE.        12-JAN-2023:   logging date
 WSTA.           Location:   Well status
~CURVE INFORMATION
#MNEM.UNIT       API CODE    CURVE DESCRIPTION
#----------   ------------   ------------------------------
 DEPT.M                  :   DEPTH
 DWTC.V/V                :   Dry Weight Total Carbon (Borehole corrected) {F13.4}
 WCLAY.V/V               :   Dry Weight of Clay
 WCLC.V/V                :   Dry Weight Calcite (Inelastic Capture Closure) {F13.4}
 WDOL.V/V                :   Dry Weight Dolomite (Inelastic Capture Closure) {F13.4}
 WPYR.V/V                :   WEIGHT FRACTION PYRITE
 WQFM.V/V                :   WEIGHT FRACTION QUARTZ AND FELDSPAR AND MICA
 ECGR.GAPI               :   GAMMA-RAY {F13.5}
 HCGR.GAPI               :   (HNGS-BA) (6IN) GAMMA RAY CONTRIBUTION FROM THORIUM AND POTASSIUM
 SGR .GAPI               :   (HNGS-BA) (6IN) SPECTROSCOPY GAMMA RAY
 HURA.PPM                :   URANIUM CONCENTRATION
 HTHO.PPM                :   THORIUM CONCENTRATION
 HFK .V/V                :   POTASSIUM CONCENTRATION
 WTOC.V/V                :   Dry Weight Total Organic Carbon
 WCARB.V/V               :   Weight fraction of carbonate
 WQTZ.V/V                :   Weight fraction of quartz
 RHGE.KG/M3              :   MATRIX DENSITY FROM ELEMENTAL CONCENTRATIONS - SPECTROLITH WALK2 MODEL 
 HCAL1.MM                :   Caliper  (HDRS-H[1])  (1IN) CALIPER
 HCAL2.MM                :   Caliper  (HDRS-H[2])  (1IN) CALIPER
 HD1_PPC1.MM             :   PPC1 ELLIPSE HOLE DIAMETER 1 {F14.5}
 HD2_PPC1.MM             :   PPC1 ELLIPSE HOLE DIAMETER 2 {F14.5}
 GR_ND.GAPI  42 310 00 00:   Gamma Ray
 SP  .MV     05 010 01 00:   Spontaneous Potential
 DTP .US/M   60 520 00 00:   Compressional Wave
 DEN .KG/M3  42 350 01 00:   HRDD STANDARD RESOLUTION FORMATION DENSITY
 PE  .B/E                :   HRDD Standard Resolution Formation Photoelectric Factor [F12.3]
 HDRA.KG/M3              :   HRDD DENSITY CORRECTION
 PDS .V/V                :   DENSITY POROSITY WITH SANDSTONE CALIBRATION
 PDL .V/V                :   DENSITY POROSITY WITH LIMESTONE CALIBRATION
 POS .V/V                :   NEUTRON POROSITY WITH SANDSTONE CALIBRATION
 POL .V/V                :   NEUTRON POROSITY WITH LIMESTONE CALIBRATION
 SPHI.V/V                :   Sonic Porosity [F12.3]
 PHIZ.V/V                :   INTERGRANULAR POROSITY
 RS  .OHMM               :   ARRAY INDUCTION FOUR FOOT RESISTIVITY A20
 RM  .OHMM               :   ARRAY INDUCTION FOUR FOOT RESISTIVITY A30
 RD  .OHMM   07 120 46 00:   Deep Induction Resistivity
~PARAMETER INFORMATION
#MNEM.UNIT          VALUE    DESCRIPTION
#----------   ------------   ------------------------------
 EKB .M          516.8000:   Kelly bushing
 EGL .M          518.9000:   Ground level
 EDF .M          516.5000:   Drilling floor
 EPD .M          518.9000:   Permanent datum
 TD  .M            0.0000:   Total depth
 NRUN.                  1:   Number of Runs
#--RUN 1---   ------------   The following are for Run 1---
 RUN .                  1:   Run 1
 DATE.        12-JAN-2023:   Logging Date
 TMAX.degC      105.00000:   (Borehole)      Max Recorded Temp
~Tops
SCATTER                           612.0
GARBUTT                           659.0
FANTASQUE                         696.5
MATTSON                           704.0
DEBOLT                            734.0
SHUNDER                           989.0
PEKISKO                          1109.0
BANFF                            1160.0
EXSHAW                           1690.0
KOTCHO                           1720.0
TETCHO                           1974.5
TROUT RIVER                      1986.0
KAKISA                           2051.5
FORT SIMPSON                     2101.0
MUSKWA                           2949.5
OTTER PARK                       3026.0
KLUA                             3083.5
EVIE                             3098.0
KEG RIVER                        3148.0
~A  DEPTH     DWTC      WCLAY       WCLC       WDOL       WPYR       WQFM       ECGR       HCGR        SGR       HURA       HTHO        HFK       WTOC      WCARB     WQTZ       RHGE      HCAL1      HCAL2   HD1_PPC1   HD2_PPC1      GR_ND         SP        DTP        DEN         PE       HDRA        PDS        PDL        POS        POL       SPHI       PHIZ         RS         RM         RD
# ...
 3098.2000     0.0368     0.3392     0.0114     0.1460     0.0612     0.4422   181.8679    66.8557   161.3176    12.7039     7.8559     2.3172     0.0188     0.1574     0.3270  2774.4722   200.8779   201.5399   199.5705   199.8862   162.4291 -1286.7766   246.2195  2608.0488     5.2631   -36.8969     0.0254     0.0596     0.1656     0.1188     0.1585     0.0897    21.2010    20.8945    18.4896
 3098.4000     0.0414     0.2608     0.0452     0.1290     0.0592     0.5058   175.6553    53.6269   148.9892    12.7449     6.6381     1.8012     0.0216     0.1742     0.3323  2760.0994   201.4810   201.5378   199.3871   200.0594   156.8716 -1279.3213   241.2271  2539.8716     4.7401   -34.0115     0.0667     0.0995     0.0881     0.0486     0.1490     0.0708    33.6509    33.8103    31.9007
 3098.6000     0.0452     0.1998     0.0877     0.0705     0.0502     0.5920   174.1815    42.0705   139.9615    13.0290     5.1970     1.4148     0.0262     0.1581     0.3507  2735.6230   201.5451   201.4192   199.3924   199.9580   155.6080 -1275.9812   234.8219  2489.6489     4.1833   -18.2673     0.0972     0.1289     0.0845     0.0457     0.1360     0.0785    58.2646    58.7954    55.7599
 3098.8000     0.0471     0.1510     0.1049     0.0266     0.0373     0.6802   178.8980    35.9503   143.3586    14.2604     4.5081     1.1976     0.0304     0.1315     0.3710  2712.5303   201.6110   201.4928   199.5062   199.9697   159.7835 -1273.9415   234.1683  2476.6479     3.8356    -5.3725     0.1051     0.1365     0.0951     0.0554     0.1346     0.0870   105.5154   101.0747    96.0083
 3099.0000     0.0478     0.1275     0.0992     0.0128     0.0273     0.7332   181.4437    31.4517   147.5685    15.3316     4.1018     1.0207     0.0326     0.1120     0.3847  2698.4404   201.6209   201.4069   199.5066   199.9601   162.0882 -1275.0209   234.2192  2471.1807     3.6174    -2.8519     0.1084     0.1397     0.0955     0.0557     0.1347     0.0996   148.9537   129.4565   114.2310
 3099.2000     0.0485     0.1261     0.0830     0.0309     0.0235     0.7367   182.6850    28.9855   147.6116    15.5867     3.7720     0.9421     0.0331     0.1139     0.3859  2696.1648   201.4510   200.9674   199.6667   199.8487   163.2428 -1273.3809   234.0396  2467.9856     3.4959    -1.0099     0.1103     0.1415     0.0958     0.0558     0.1344     0.1076   153.9046   130.7937   107.3083
 3099.4000     0.0505     0.1357     0.0535     0.0820     0.0258     0.7028   180.6978    25.7500   147.3003    15.9493     3.2627     0.8520     0.0342     0.1355     0.3766  2704.5776   201.4920   201.7999   199.7053   199.9320   161.3758 -1273.1495   234.8956  2477.0938     3.4960     1.6958     0.1048     0.1362     0.1003     0.0596     0.1361     0.1063   146.8124   126.9203   108.9663
 3099.6000     0.0543     0.1494     0.0310     0.1128     0.0283     0.6771   182.6058    24.5282   149.2201    16.2761     3.1424     0.8057     0.0375     0.1438     0.3722  2711.2632   201.4216   201.8171   199.7000   199.9141   163.1632 -1275.1724   236.3029  2481.0730     3.5760     2.3132     0.1024     0.1339     0.1035     0.0626     0.1391     0.1032   150.0313   129.5780   111.9391
 3099.8000     0.0599     0.1500     0.0348     0.0956     0.0296     0.6900   199.1606    26.2849   157.5219    17.1464     3.5291     0.8358     0.0436     0.1304     0.3786  2709.7571   201.5591   201.6623   199.4105   200.2715   178.0151 -1275.3651   237.6338  2479.8628     3.6295     0.5607     0.1031     0.1346     0.1088     0.0676     0.1415     0.1020   147.4219   132.2286   112.5538
 3100.0000     0.0641     0.1269     0.0517     0.0562     0.0282     0.7371   225.0940    31.4545   178.8534    19.2591     4.2671     0.9927     0.0505     0.1078     0.3899  2702.8418   201.4753   201.7879   199.6193   199.8675   201.1108 -1272.4814   237.6736  2460.4004     3.6481    -2.9422     0.1149     0.1460     0.1001     0.0598     0.1419     0.1067   155.8997   127.5333   111.7288
 3100.2000     0.0671     0.0972     0.0670     0.0178     0.0259     0.7921   237.1382    33.7140   194.1218    21.0925     4.6811     1.0456     0.0555     0.0848     0.4017  2695.4658   201.5307   201.2304   199.3922   199.9577   211.7063 -1272.5298   236.5735  2436.4116     3.5428    -5.4854     0.1294     0.1600     0.0936     0.0540     0.1396     0.1172   154.9284   120.6410   111.1740
 3100.4000     0.0681     0.0733     0.0701     0.0086     0.0228     0.8252   222.0189    32.1666   184.1036    19.9866     4.5922     0.9761     0.0575     0.0787     0.4059  2692.1221   201.5950   201.2567   199.6478   199.6679   198.2416 -1270.1913   236.5307  2436.9727     3.4321    -4.2295     0.1291     0.1597     0.0928     0.0533     0.1395     0.1283   150.7619   115.1098   114.0252
 3100.6000     0.0673     0.0674     0.0692     0.0180     0.0186     0.8276   201.4904    28.8425   164.9320    17.8695     4.2947     0.8450     0.0562     0.0871     0.4025  2691.4758   201.1237   201.0776   199.7138   199.9626   179.8887 -1265.0676   236.4197  2454.9973     3.5062    -2.1714     0.1182     0.1491     0.0997     0.0594     0.1393     0.1287   141.8786   113.9479   115.8578
 3100.8000     0.0657     0.0792     0.0667     0.0337     0.0129     0.8076   195.7929    27.5840   155.3608    16.8245     4.2049     0.7914     0.0536     0.1004     0.3963  2690.7874   201.8076   201.0708   199.5624   199.9541   175.1029 -1266.3680   236.4491  2456.6526     3.6598    -5.0093     0.1172     0.1482     0.1000     0.0597     0.1394     0.1148   133.3252   112.8815   116.8538
 3101.0000     0.0635     0.1140     0.0684     0.0419     0.0105     0.7652   195.9838    29.5260   155.2472    16.4563     4.4699     0.8525     0.0505     0.1103     0.3917  2689.7795   201.3993   201.3054   199.6254   200.1435   175.2151 -1266.7629   235.6707  2452.2048     3.7786    -8.2304     0.1199     0.1508     0.0934     0.0539     0.1378     0.0961   131.4776   116.5820   113.3888
 3101.2000     0.0622     0.1363     0.0738     0.0427     0.0126     0.7352   194.2929    31.5714   159.8872    16.8564     4.7362     0.9189     0.0480     0.1158     0.3888  2690.5474   201.4354   201.5417   199.3621   199.9527   173.6228 -1262.4268   234.8725  2475.6558     4.0074    -5.9718     0.1057     0.1370     0.0877     0.0489     0.1361     0.0917   133.3009   118.0255   114.3848
 3101.4000     0.0616     0.1479     0.0901     0.0302     0.0163     0.7154   201.6912    32.8250   163.9312    17.2299     4.7139     0.9913     0.0468     0.1204     0.3852  2692.1201   201.3272   201.8363   199.5135   199.8202   180.2077 -1260.5499   232.8484  2499.9980     4.3956    -7.3687     0.0909     0.1228     0.0930     0.0534     0.1318     0.0990   139.5361   120.5087   117.8457
 3101.6000     0.0620     0.1458     0.1131     0.0127     0.0198     0.7086   204.5977    31.6812   164.3855    17.4449     4.5947     0.9491     0.0463     0.1258     0.3813  2693.3420   201.5131   201.7885   199.7105   199.8603   182.7345 -1260.9242   230.0508  2506.2371     4.6069    -9.3164     0.0871     0.1192     0.1084     0.0673     0.1258     0.1011   146.1242   126.5634   124.1490
 3101.8000     0.0618     0.1331     0.1319     0.0044     0.0207     0.7099   200.1059    30.5770   163.2226    17.4107     4.3078     0.9377     0.0451     0.1363     0.3760  2693.8352   201.0697   202.0374   199.3561   199.8391   178.6814 -1261.9563   226.8088  2504.4417     4.5053    -5.8516     0.0882     0.1202     0.1056     0.0645     0.1187     0.0962   152.1515   131.4049   129.0796
 3102.0000     0.0593     0.1187     0.1423     0.0070     0.0196     0.7124   190.7971    30.4744   153.2620    16.1471     4.4180     0.9133     0.0410     0.1493     0.3717  2693.3862   201.1634   201.8327   199.3810   199.8401   170.4673 -1260.5789   224.9125  2516.1821     4.2906    -1.1299     0.0811     0.1133     0.0969     0.0572     0.1144     0.0834   161.7276   140.9263   137.1387
 3102.2000     0.0556     0.1066     0.1422     0.0245     0.0191     0.7076   174.0763    28.0855   139.3518    14.6910     4.0147     0.8514     0.0350     0.1668     0.3665  2694.4839   201.6048   201.5487   199.5878   199.8353   155.5144 -1259.7888   223.2350  2536.7593     4.2605    -0.2441     0.0686     0.1013     0.0763     0.0392     0.1106     0.0727   173.1985   149.8423   141.9077
