~VERSION INFORMATION
 VERS.               2.10:   CWLS LOG ASCII STANDARD - VERSION 2.10
 WRAP.                 NO:   ONE LINE PER DEPTH STEP
~WELL INFORMATION
#MNEM.UNIT      DATA TYPE    INFORMATION
#----------   ------------   ------------------------------
 STRT.M         2800.0000:   Start depth
 STOP.M         3210.0000:   Stop depth
 STEP.M            0.2000:   Step length
 NULL.          -999.2500:   No value
 WELL.                   :   Well
 FLD .                   :   Field
 LOC .                   :   Location
 SRVC.                   :   Service company
 DATE.        12-JAN-2023:   logging date
 WSTA.           Location:   Well status
~CURVE INFORMATION
#MNEM.UNIT       API CODE    CURVE DESCRIPTION
#----------   ------------   ------------------------------
 DEPT.M                  :   DEPTH
 DWTC.V/V                :   Dry Weight Total Carbon (Borehole corrected) {F13.4}
 WCLAY.V/V               :   Dry Weight of Clay
 WCLC.V/V                :   Dry Weight Calcite (Inelastic Capture Closure) {F13.4}
 WDOL.V/V                :   Dry Weight Dolomite (Inelastic Capture Closure) {F13.4}
 WPYR.V/V                :   WEIGHT FRACTION PYRITE
 WQFM.V/V                :   WEIGHT FRACTION QUARTZ AND FELDSPAR AND MICA
 ECGR.GAPI               :   GAMMA-RAY {F13.5}
 HCGR.GAPI               :   (HNGS-BA) (6IN) GAMMA RAY CONTRIBUTION FROM THORIUM AND POTASSIUM
 SGR .GAPI               :   (HNGS-BA) (6IN) SPECTROSCOPY GAMMA RAY
 HURA.PPM                :   URANIUM CONCENTRATION
 HTHO.PPM                :   THORIUM CONCENTRATION
 HFK .V/V                :   POTASSIUM CONCENTRATION
 WTOC.V/V                :   Dry Weight Total Organic Carbon
 WCARB.V/V               :   Weight fraction of carbonate
 WQTZ.V/V                :   Weight fraction of quartz
 RHGE.KG/M3              :   MATRIX DENSITY FROM ELEMENTAL CONCENTRATIONS - SPECTROLITH WALK2 MODEL 
 HCAL1.MM                :   Caliper  (HDRS-H[1])  (1IN) CALIPER
 HCAL2.MM                :   Caliper  (HDRS-H[2])  (1IN) CALIPER
 HD1_PPC1.MM             :   PPC1 ELLIPSE HOLE DIAMETER 1 {F14.5}
 HD2_PPC1.MM             :   PPC1 ELLIPSE HOLE DIAMETER 2 {F14.5}
 GR_ND.GAPI  42 310 00 00:   Gamma Ray
 SP  .MV     05 010 01 00:   Spontaneous Potential
 DTP .US/M   60 520 00 00:   Compressional Wave
 DEN .KG/M3  42 350 01 00:   HRDD STANDARD RESOLUTION FORMATION DENSITY
 PE  .B/E                :   HRDD Standard Resolution Formation Photoelectric Factor [F12.3]
 HDRA.KG/M3              :   HRDD DENSITY CORRECTION
 PDS .V/V                :   DENSITY POROSITY WITH SANDSTONE CALIBRATION
 PDL .V/V                :   DENSITY POROSITY WITH LIMESTONE CALIBRATION
 POS .V/V                :   NEUTRON POROSITY WITH SANDSTONE CALIBRATION
 POL .V/V                :   NEUTRON POROSITY WITH LIMESTONE CALIBRATION
 SPHI.V/V                :   Sonic Porosity [F12.3]
 PHIZ.V/V                :   INTERGRANULAR POROSITY
 RS  .OHMM               :   ARRAY INDUCTION FOUR FOOT RESISTIVITY A20
 RM  .OHMM               :   ARRAY INDUCTION FOUR FOOT RESISTIVITY A30
 RD  .OHMM   07 120 46 00:   Deep Induction Resistivity
~PARAMETER INFORMATION
#MNEM.UNIT          VALUE    DESCRIPTION
#----------   ------------   ------------------------------
 EKB .M          516.8000:   Kelly bushing
 EGL .M          518.9000:   Ground level
 EDF .M          516.5000:   Drilling floor
 EPD .M          518.9000:   Permanent datum
 TD  .M            0.0000:   Total depth
 NRUN.                  1:   Number of Runs
#--RUN 1---   ------------   The following are for Run 1---
 RUN .                  1:   Run 1
 DATE.        12-JAN-2023:   Logging Date
 TMAX.degC      105.00000:   (Borehole)      Max Recorded Temp
~Tops
SCATTER                           612.0
GARBUTT                           659.0
FANTASQUE                         696.5
MATTSON                           704.0
DEBOLT                            734.0
SHUNDER                           989.0
PEKISKO                          1109.0
BANFF                            1160.0
EXSHAW                           1690.0
KOTCHO                           1720.0
TETCHO                           1974.5
TROUT RIVER                      1986.0
KAKISA                           2051.5
FORT SIMPSON                     2101.0
MUSKWA                           2949.5
OTTER PARK                       3026.0
KLUA                             3083.5
EVIE                             3098.0
KEG RIVER                        3148.0
~A  DEPTH     DWTC      WCLAY       WCLC       WDOL       WPYR       WQFM       ECGR       HCGR        SGR       HURA       HTHO        HFK       WTOC      WCARB     WQTZ       RHGE      HCAL1      HCAL2   HD1_PPC1   HD2_PPC1      GR_ND         SP        DTP        DEN         PE       HDRA        PDS        PDL        POS        POL       SPHI       PHIZ         RS         RM         RD
# ...
 2934.4000     0.0224     0.4514     0.0357     0.0573     0.0110     0.4446   132.8004    94.7791   106.9116     1.8557    14.3005     2.7451     0.0119     0.0930     0.3294  2763.7334   199.4204   199.7983   204.8010   204.1115   118.3611 -1202.5234   278.1419  2707.5308     4.9308     1.0331    -0.0349     0.0014     0.2639     0.2120     0.2122     0.1420     4.1028     4.0220     3.8002
 2934.6000     0.0217     0.4435     0.0631     0.0287     0.0118     0.4529   128.5440    94.1868   106.3129     1.8422    14.2771     2.7166     0.0110     0.0918     0.3281  2760.9187   199.0992   200.7476   204.5289   204.2960   114.2042 -1201.8420   276.7968  2714.8254     4.9656     1.7425    -0.0393    -0.0028     0.2549     0.2032     0.2103     0.1432     4.1068     4.0232     3.8083
 2934.8000     0.0202     0.4330     0.0763     0.0053     0.0114     0.4739   124.8448    91.5070   105.7838     2.1613    13.7510     2.6597     0.0100     0.0817     0.3334  2757.1292   199.5226   200.0671   205.0636   204.6027   110.7520 -1201.2533   276.4239  2724.8818     4.9870     1.7655    -0.0454    -0.0087     0.2595     0.2080     0.2096     0.1487     4.1138     4.0357     3.8277
 2935.0000     0.0178     0.4254     0.0761     0.0002     0.0094     0.4888   125.0660    86.9424   105.4480     2.7370    12.9688     2.5435     0.0084     0.0764     0.3396  2752.7495   200.7127   200.0689   204.8099   205.1460   110.9418 -1202.3815   276.4265  2724.2644     5.1186    -0.2326    -0.0450    -0.0083     0.2702     0.2187     0.2096     0.1525     4.1267     4.0394     3.8373
 2935.2000     0.0151     0.4155     0.0723     0.0000     0.0093     0.5028   125.1083    83.8748   105.9222     3.2596    12.5267     2.4511     0.0067     0.0723     0.3426  2751.8569   200.5131   199.9598   205.0941   204.6491   110.7718 -1203.3871   276.2931  2723.0383     5.2941    -1.4564    -0.0443    -0.0076     0.2663     0.2146     0.2094     0.1499     4.1562     4.0363     3.8382
 2935.4000     0.0140     0.4133     0.0677     0.0002     0.0126     0.5059   123.9870    82.4784   107.0835     3.6048    12.0645     2.4537     0.0060     0.0680     0.3434  2753.9033   200.7109   199.9135   204.7432   204.3119   109.8479 -1203.7489   276.5348  2721.9468     5.3098    -1.5761    -0.0436    -0.0070     0.2563     0.2047     0.2098     0.1479     4.1828     4.0370     3.8317
 2935.6000     0.0138     0.4214     0.0581     0.0027     0.0171     0.5008   126.9270    84.5644   109.1184     3.6269    12.4043     2.5098     0.0066     0.0608     0.3462  2755.3718   200.1831   200.4690   204.8016   204.8343   112.3889 -1203.9447   277.4709  2716.6863     5.1502    -0.8404    -0.0404    -0.0039     0.2610     0.2093     0.2112     0.1508     4.1971     4.0387     3.8249
 2935.8000     0.0148     0.4440     0.0439     0.0082     0.0218     0.4821   128.3556    86.5923   111.9865     3.7830    12.7696     2.5584     0.0081     0.0521     0.3516  2754.8115   199.9018   200.8409   204.9052   204.6542   113.6448 -1203.2408   276.6326  2714.3054     4.9488     0.6739    -0.0390    -0.0025     0.2627     0.2112     0.2099     0.1530     4.2134     4.0885     3.8550
 2936.0000     0.0152     0.4703     0.0395     0.0076     0.0241     0.4586   130.1161    86.7657   112.9953     4.0165    13.0333     2.5229     0.0092     0.0472     0.3551  2752.9509   200.2663   201.2756   205.2318   204.7354   115.1043 -1202.5270   277.4355  2720.9102     4.8768     4.0993    -0.0430    -0.0064     0.2684     0.2166     0.2111     0.1511     4.1282     4.0242     3.7992
 2936.2000     0.0146     0.4872     0.0431     0.0029     0.0247     0.4420   135.6440    85.5870   112.1241     4.0204    12.9436     2.4737     0.0088     0.0460     0.3576  2750.1282   200.2101   201.0737   205.8063   205.6317   119.7594 -1201.8473   278.3200  2719.8508     4.9895     6.1011    -0.0423    -0.0058     0.2667     0.2151     0.2124     0.1522     3.9914     3.9230     3.7104
 2936.4000     0.0145     0.4834     0.0491     0.0002     0.0242     0.4431   140.1768    89.0498   112.1446     3.5210    14.0158     2.4802     0.0085     0.0493     0.3568  2750.0830   201.9410   201.1790   205.4148   205.3658   123.7627 -1201.8651   279.6706  2704.3101     5.1986    -1.8168    -0.0329     0.0033     0.2609     0.2093     0.2144     0.1505     3.8716     3.8213     3.6399
 2936.6000     0.0146     0.4582     0.0522     0.0000     0.0238     0.4658   140.6060    94.3370   114.0170     3.0800    15.0194     2.5981     0.0084     0.0523     0.3528  2754.8423   200.6411   201.8069   205.1139   205.3450   124.2807 -1203.5913   278.6176  2695.1111     5.3235   -11.1252    -0.0273     0.0087     0.2700     0.2182     0.2129     0.1510     3.8103     3.7700     3.6135
 2936.8000     0.0156     0.4159     0.0494     0.0046     0.0228     0.5073   139.8469    95.6206   115.9315     3.1401    14.9885     2.6736     0.0092     0.0540     0.3474  2761.7810   200.8551   202.1526   205.1139   205.3451   123.6206 -1203.8489   279.3899  2705.2729     5.2554    -8.4909    -0.0335     0.0028     0.2699     0.2184     0.2140     0.1516     3.7953     3.7463     3.6100
 2937.0000     0.0166     0.3766     0.0376     0.0156     0.0232     0.5471   136.6576    97.1678   116.9095     3.0315    14.9754     2.7605     0.0104     0.0531     0.3447  2768.4392   200.0513   201.3095   205.9399   206.2616   120.8591 -1202.0365   279.2379  2703.1489     5.2018    -0.9118    -0.0322     0.0040     0.2727     0.2212     0.2138     0.1507     3.7876     3.7207     3.5731
 2937.2000     0.0171     0.3495     0.0343     0.0130     0.0241     0.5791   134.7423    95.5036   118.7879     3.4485    14.2729     2.7894     0.0113     0.0473     0.3470  2769.9182   199.3957   199.6426   204.8731   204.3854   119.6449 -1200.4973   278.7251  2693.4336     5.2254    -0.0923    -0.0263     0.0097     0.2761     0.2245     0.2130     0.1502     3.7712     3.6873     3.5216
 2937.4000     0.0158     0.3360     0.0412     0.0016     0.0237     0.5975   135.9930    98.6730   120.4629     3.3660    15.0061     2.8377     0.0104     0.0428     0.3539  2764.0623   200.4428   198.4552   206.0683   205.3519   120.2541 -1199.0291   278.0506  2706.1711     5.2564    -1.1477    -0.0340     0.0023     0.2570     0.2055     0.2120     0.1489     3.7436     3.6569     3.4621
 2937.6000     0.0154     0.3346     0.0410     0.0000     0.0251     0.5993   137.5752    96.8944   119.3964     3.4495    14.4714     2.8317     0.0099     0.0410     0.3575  2761.7261   201.2006   199.6993   206.2547   205.2830   121.6226 -1199.4095   277.6507  2720.0598     5.3056    -3.2749    -0.0425    -0.0059     0.2626     0.2108     0.2114     0.1513     3.7384     3.6431     3.4300
 2937.8000     0.0152     0.3551     0.0407     0.0036     0.0298     0.5709   134.7055    94.1227   117.8145     3.6144    13.7161     2.8090     0.0085     0.0443     0.3543  2764.4814   200.7752   201.1730   206.1132   205.6596   119.1459 -1200.2939   277.5394  2719.4431     5.3341    -4.1089    -0.0421    -0.0055     0.2547     0.2031     0.2113     0.1502     3.7881     3.6909     3.4523
 2938.0000     0.0146     0.3718     0.0253     0.0403     0.0351     0.5275   131.7394    91.5934   119.9083     4.2619    12.9130     2.8077     0.0058     0.0656     0.3448  2771.7056   200.3995   201.4033   206.3005   205.1925   116.3663 -1200.2009   278.7792  2713.0784     5.2099    -3.1792    -0.0382    -0.0018     0.2551     0.2034     0.2131     0.1482     3.8584     3.7682     3.5264
 2938.2000     0.0143     0.3868     0.0026     0.0910     0.0410     0.4786   134.4206    88.8023   123.5106     5.1433    12.1258     2.7894     0.0027     0.0936     0.3387  2778.3701   201.0591   201.1974   206.2674   205.3730   118.5718 -1198.7378   280.7631  2703.5215     4.9981     2.0910    -0.0324     0.0038     0.2552     0.2035     0.2160     0.1473     3.9112     3.8749     3.6038
 2938.4000     0.0154     0.3795     0.0000     0.1148     0.0435     0.4623   137.3918    91.0060   128.7269     5.4894    12.3801     2.8666     0.0013     0.1148     0.3337  2779.7126   201.5747   201.0684   206.1531   206.0017   121.2065 -1197.2002   281.8504  2693.9702     4.8598     7.5888    -0.0267     0.0094     0.2469     0.1955     0.2176     0.1500     3.9653     3.9739     3.6670
