~VERSION INFORMATION
 VERS.               2.10:   CWLS LOG ASCII STANDARD - VERSION 2.10
 WRAP.                 NO:   ONE LINE PER DEPTH STEP
~WELL INFORMATION
#MNEM.UNIT      DATA TYPE    INFORMATION
#----------   ------------   ------------------------------
 STRT.M         2800.0000:   Start depth
 STOP.M         3210.0000:   Stop depth
 STEP.M            0.2000:   Step length
 NULL.          -999.2500:   No value
 WELL.                   :   Well
 FLD .                   :   Field
 LOC .                   :   Location
 SRVC.                   :   Service company
 DATE.        12-JAN-2023:   logging date
 WSTA.           Location:   Well status
~CURVE INFORMATION
#MNEM.UNIT       API CODE    CURVE DESCRIPTION
#----------   ------------   ------------------------------
 DEPT.M                  :   DEPTH
 DWTC.V/V                :   Dry Weight Total Carbon (Borehole corrected) {F13.4}
 WCLAY.V/V               :   Dry Weight of Clay
 WCLC.V/V                :   Dry Weight Calcite (Inelastic Capture Closure) {F13.4}
 WDOL.V/V                :   Dry Weight Dolomite (Inelastic Capture Closure) {F13.4}
 WPYR.V/V                :   WEIGHT FRACTION PYRITE
 WQFM.V/V                :   WEIGHT FRACTION QUARTZ AND FELDSPAR AND MICA
 ECGR.GAPI               :   GAMMA-RAY {F13.5}
 HCGR.GAPI               :   (HNGS-BA) (6IN) GAMMA RAY CONTRIBUTION FROM THORIUM AND POTASSIUM
 SGR .GAPI               :   (HNGS-BA) (6IN) SPECTROSCOPY GAMMA RAY
 HURA.PPM                :   URANIUM CONCENTRATION
 HTHO.PPM                :   THORIUM CONCENTRATION
 HFK .V/V                :   POTASSIUM CONCENTRATION
 WTOC.V/V                :   Dry Weight Total Organic Carbon
 WCARB.V/V               :   Weight fraction of carbonate
 WQTZ.V/V                :   Weight fraction of quartz
 RHGE.KG/M3              :   MATRIX DENSITY FROM ELEMENTAL CONCENTRATIONS - SPECTROLITH WALK2 MODEL 
 HCAL1.MM                :   Caliper  (HDRS-H[1])  (1IN) CALIPER
 HCAL2.MM                :   Caliper  (HDRS-H[2])  (1IN) CALIPER
 HD1_PPC1.MM             :   PPC1 ELLIPSE HOLE DIAMETER 1 {F14.5}
 HD2_PPC1.MM             :   PPC1 ELLIPSE HOLE DIAMETER 2 {F14.5}
 GR_ND.GAPI  42 310 00 00:   Gamma Ray
 SP  .MV     05 010 01 00:   Spontaneous Potential
 DTP .US/M   60 520 00 00:   Compressional Wave
 DEN .KG/M3  42 350 01 00:   HRDD STANDARD RESOLUTION FORMATION DENSITY
 PE  .B/E                :   HRDD Standard Resolution Formation Photoelectric Factor [F12.3]
 HDRA.KG/M3              :   HRDD DENSITY CORRECTION
 PDS .V/V                :   DENSITY POROSITY WITH SANDSTONE CALIBRATION
 PDL .V/V                :   DENSITY POROSITY WITH LIMESTONE CALIBRATION
 POS .V/V                :   NEUTRON POROSITY WITH SANDSTONE CALIBRATION
 POL .V/V                :   NEUTRON POROSITY WITH LIMESTONE CALIBRATION
 SPHI.V/V                :   Sonic Porosity [F12.3]
 PHIZ.V/V                :   INTERGRANULAR POROSITY
 RS  .OHMM               :   ARRAY INDUCTION FOUR FOOT RESISTIVITY A20
 RM  .OHMM               :   ARRAY INDUCTION FOUR FOOT RESISTIVITY A30
 RD  .OHMM   07 120 46 00:   Deep Induction Resistivity
~PARAMETER INFORMATION
#MNEM.UNIT          VALUE    DESCRIPTION
#----------   ------------   ------------------------------
 EKB .M          516.8000:   Kelly bushing
 EGL .M          518.9000:   Ground level
 EDF .M          516.5000:   Drilling floor
 EPD .M          518.9000:   Permanent datum
 TD  .M            0.0000:   Total depth
 NRUN.                  1:   Number of Runs
#--RUN 1---   ------------   The following are for Run 1---
 RUN .                  1:   Run 1
 DATE.        12-JAN-2023:   Logging Date
 TMAX.degC      105.00000:   (Borehole)      Max Recorded Temp
~Tops
SCATTER                           612.0
GARBUTT                           659.0
FANTASQUE                         696.5
MATTSON                           704.0
DEBOLT                            734.0
SHUNDER                           989.0
PEKISKO                          1109.0
BANFF                            1160.0
EXSHAW                           1690.0
KOTCHO                           1720.0
TETCHO                           1974.5
TROUT RIVER                      1986.0
KAKISA                           2051.5
FORT SIMPSON                     2101.0
MUSKWA                           2949.5
OTTER PARK                       3026.0
KLUA                             3083.5
EVIE                             3098.0
KEG RIVER                        3148.0
~A  DEPTH     DWTC      WCLAY       WCLC       WDOL       WPYR       WQFM       ECGR       HCGR        SGR       HURA       HTHO        HFK       WTOC      WCARB     WQTZ       RHGE      HCAL1      HCAL2   HD1_PPC1   HD2_PPC1      GR_ND         SP        DTP        DEN         PE       HDRA        PDS        PDL        POS        POL       SPHI       PHIZ         RS         RM         RD
# ...
 2825.2000     0.0142     0.4623     0.0161     0.0131     0.0256     0.4826   130.1043    85.8952   110.8049     3.6028    13.0778     2.4676     0.0105     0.0296     0.3673  2749.7483   200.5646   200.3651   205.2160   204.1446   115.2756 -1181.3191   277.5893  2665.3403     4.2886    -1.0559    -0.0093     0.0261     0.2491     0.1976     0.2113     0.1518     3.8483     3.7895     3.6368
 2825.4000     0.0148     0.4486     0.0274     0.0104     0.0206     0.4930   130.3307    86.4938   111.3280     3.4652    13.1524     2.4877     0.0104     0.0377     0.3618  2748.9351   200.7675   200.8905   206.0112   205.1718   115.3195 -1179.3813   277.8531  2663.7478     4.4032    -1.3915    -0.0083     0.0270     0.2530     0.2014     0.2117     0.1525     3.8782     3.8133     3.6569
 2825.6000     0.0154     0.4307     0.0408     0.0034     0.0182     0.5070   129.9958    85.0697   111.7645     3.6048    12.8785     2.4565     0.0101     0.0442     0.3591  2748.1223   200.9999   201.2169   205.9901   204.9772   114.9365 -1177.7440   276.9329  2671.0161     4.4263    -0.3581    -0.0127     0.0228     0.2463     0.1949     0.2103     0.1542     3.9129     3.8567     3.6940
 2825.8000     0.0156     0.4270     0.0495     0.0000     0.0188     0.5047   130.2192    85.1152   113.7913     3.8803    12.7989     2.4726     0.0100     0.0495     0.3584  2747.4773   201.1135   200.4854   205.8038   205.1263   115.0373 -1178.7742   277.6543  2687.3838     4.3233    -3.1839    -0.0227     0.0132     0.2542     0.2026     0.2114     0.1573     3.9317     3.8769     3.7045
 2826.0000     0.0152     0.4542     0.0506     0.0000     0.0202     0.4749   132.4315    84.4524   112.5983     3.8879    12.4704     2.4925     0.0096     0.0506     0.3587  2746.3323   201.2611   201.0225   206.0722   205.0153   116.9128 -1178.5948   275.8565  2686.2205     4.2333    -5.0360    -0.0220     0.0139     0.2548     0.2029     0.2087     0.1521     3.9307     3.9205     3.7409
 2826.2000     0.0143     0.4843     0.0434     0.0000     0.0204     0.4519   129.5324    85.6969   112.5456     3.7956    12.7959     2.5050     0.0092     0.0434     0.3603  2746.2556   200.2812   200.9545   205.7266   204.8654   114.4453 -1178.6750   272.0448  2674.5603     4.1710    -2.2250    -0.0149     0.0207     0.2453     0.1937     0.2029     0.1475     3.9537     3.8906     3.7029
 2826.4000     0.0137     0.5123     0.0308     0.0021     0.0199     0.4349   129.5505    87.3555   112.0292     3.5536    13.2287     2.5219     0.0088     0.0329     0.3620  2747.2568   201.5204   200.2944   205.1801   204.1196   114.4691 -1180.9969   268.1637  2671.2898     4.1279     1.8481    -0.0129     0.0226     0.2546     0.2030     0.1971     0.1533     4.2058     4.1176     3.9035
 2826.6000     0.0128     0.5216     0.0172     0.0200     0.0190     0.4238   134.3493    88.4274   108.9885     3.1243    13.8019     2.4826     0.0077     0.0373     0.3612  2749.5059   201.0166   199.5975   205.7443   204.2466   119.1267 -1180.5378   265.9724  2677.5930     4.1190     2.2980    -0.0167     0.0190     0.2619     0.2104     0.1933     0.1590     4.5755     4.4281     4.2082
 2826.8000     0.0118     0.5030     0.0076     0.0398     0.0172     0.4324   140.0026    87.1839   107.5122     3.1038    13.3101     2.4985     0.0060     0.0474     0.3604  2751.6768   200.6428   199.5570   205.2919   204.3173   124.2112 -1178.3306   263.0820  2674.6287     4.1602     0.9388    -0.0149     0.0207     0.2697     0.2180     0.1885     0.1617     4.9929     4.8274     4.5398
 2827.0000     0.0119     0.4777     0.0215     0.0320     0.0155     0.4533   137.2412    88.4052   107.3355     2.9790    13.6106     2.5141     0.0050     0.0535     0.3542  2751.1372   199.9280   199.3145   204.3302   203.7365   121.6512 -1179.5930   260.8984  2660.6409     4.2348    -1.7730    -0.0065     0.0289     0.2597     0.2081     0.1849     0.1599     5.1939     5.0208     4.7085
 2827.2000     0.0130     0.4654     0.0373     0.0245     0.0154     0.4568   130.3279    91.6392   109.6528     2.9474    14.4394     2.5495     0.0049     0.0627     0.3495  2749.9258   199.6815   199.5671   204.7077   203.6478   115.3587 -1179.6877   261.1426  2649.9912     4.2495    -3.7319     0.0000     0.0351     0.2586     0.2071     0.1853     0.1610     5.2193     5.0946     4.7778
 2827.4000     0.0146     0.4613     0.0373     0.0374     0.0158     0.4481   128.4953    93.2869   110.5387     2.8402    14.5489     2.6210     0.0049     0.0748     0.3455  2750.9058   200.0582   199.6514   205.3322   203.7162   113.6987 -1179.4139   261.7234  2644.2627     4.2042    -5.1922     0.0035     0.0384     0.2691     0.2175     0.1863     0.1634     5.2600     5.1380     4.8451
 2827.6000     0.0159     0.4681     0.0229     0.0687     0.0166     0.4236   129.5310    94.2092   108.7745     2.4375    15.2988     2.5433     0.0043     0.0916     0.3404  2754.8242   200.7343   200.1048   205.3970   203.6916   114.6859 -1180.0579   263.0566  2648.6167     4.1673    -4.0992     0.0008     0.0359     0.2680     0.2162     0.1885     0.1592     5.3194     5.1575     4.8957
 2827.8000     0.0161     0.4759     0.0068     0.0989     0.0173     0.4014   127.5542    95.1155   110.1591     2.4872    15.4875     2.5607     0.0032     0.1057     0.3397  2758.5747   199.9672   200.6147   205.3103   204.3991   112.6337 -1181.0706   263.0636  2660.9849     4.1621    -0.9709    -0.0067     0.0287     0.2642     0.2124     0.1885     0.1562     5.3753     5.1685     4.9199
 2828.0000     0.0158     0.4753     0.0013     0.1084     0.0159     0.3991   130.5139    94.1055   111.4952     2.8257    15.0725     2.5763     0.0023     0.1097     0.3394  2760.5313   199.6131   200.5241   205.7320   203.5997   115.5854 -1181.5496   262.0122  2673.3740     4.1565     1.8082    -0.0142     0.0214     0.2670     0.2155     0.1867     0.1622     5.4478     5.2007     4.9223
 2828.2000     0.0158     0.4648     0.0119     0.0906     0.0142     0.4186   135.1673    92.1582   110.6701     2.9608    14.5096     2.5658     0.0025     0.1025     0.3365  2761.1218   197.6388   200.4128   205.3211   202.4023   120.1102 -1182.3721   260.7989  2671.0876     4.1958     0.8110    -0.0128     0.0228     0.2855     0.2341     0.1847     0.1655     5.5221     5.2401     4.9127
 2828.4000     0.0182     0.4400     0.0236     0.0739     0.0129     0.4498   135.7316    91.8606   109.4276     2.8109    14.9008     2.4828     0.0058     0.0974     0.3327  2762.8052   198.0207   198.0129   203.5733   201.6298   120.7600 -1182.9121   256.8907  2662.3445     4.2939    -2.5238    -0.0075     0.0279     0.2734     0.2221     0.1780     0.1601     5.5942     5.2971     4.8780
 2828.6000     0.0193     0.3952     0.0352     0.0545     0.0101     0.5049   126.2107    90.7877   106.9361     2.5520    15.0270     2.4024     0.0083     0.0897     0.3305  2765.7251   197.9400   198.0264   203.3853   202.0449   112.2083 -1183.1414   255.1497  2682.1653     4.4339     3.3909    -0.0195     0.0163     0.2725     0.2209     0.1749     0.1561     5.6638     5.3682     4.8725
 2828.8000     0.0200     0.3635     0.0405     0.0365     0.0092     0.5504   119.6262    88.7135   103.8613     2.4255    14.8749     2.3149     0.0106     0.0770     0.3331  2768.4968   196.9903   197.9698   203.5670   202.5122   106.5075 -1183.4053   251.7242  2716.1101     4.5808    18.0704    -0.0401    -0.0036     0.2689     0.2171     0.1688     0.1537     5.6313     5.3342     4.8664
 2829.0000     0.0200     0.3500     0.0464     0.0131     0.0085     0.5820   120.4736    86.0224   101.8712     2.4947    14.6114     2.2126     0.0123     0.0595     0.3399  2767.7173   198.1237   198.0075   202.9796   201.2728   107.3443 -1183.7406   250.5200  2740.6753     4.6021    29.0620    -0.0550    -0.0179     0.2576     0.2060     0.1666     0.1510     5.5257     5.2684     4.8135
 2829.2000     0.0206     0.3496     0.0477     0.0013     0.0047     0.5968   124.2658    86.1038   100.7241     2.3405    14.4306     2.2479     0.0143     0.0490     0.3485  2761.0574   198.6926   198.1103   203.1438   201.4723   110.4741 -1183.1929   250.6514  2735.1858     4.4340    17.0173    -0.0516    -0.0147     0.2582     0.2067     0.1669     0.1551     5.4264     5.1645     4.7259
