~VERSION INFORMATION
 VERS.               2.10:   CWLS LOG ASCII STANDARD - VERSION 2.10
 WRAP.                 NO:   ONE LINE PER DEPTH STEP
~WELL INFORMATION
#MNEM.UNIT      DATA TYPE    INFORMATION
#----------   ------------   ------------------------------
 STRT.M         2800.0000:   Start depth
 STOP.M         3210.0000:   Stop depth
 STEP.M            0.2000:   Step length
 NULL.          -999.2500:   No value
 WELL.                   :   Well
 FLD .                   :   Field
 LOC .                   :   Location
 SRVC.                   :   Service company
 DATE.        12-JAN-2023:   logging date
 WSTA.           Location:   Well status
~CURVE INFORMATION
#MNEM.UNIT       API CODE    CURVE DESCRIPTION
#----------   ------------   ------------------------------
 DEPT.M                  :   DEPTH
 DWTC.V/V                :   Dry Weight Total Carbon (Borehole corrected) {F13.4}
 WCLAY.V/V               :   Dry Weight of Clay
 WCLC.V/V                :   Dry Weight Calcite (Inelastic Capture Closure) {F13.4}
 WDOL.V/V                :   Dry Weight Dolomite (Inelastic Capture Closure) {F13.4}
 WPYR.V/V                :   WEIGHT FRACTION PYRITE
 WQFM.V/V                :   WEIGHT FRACTION QUARTZ AND FELDSPAR AND MICA
 ECGR.GAPI               :   GAMMA-RAY {F13.5}
 HCGR.GAPI               :   (HNGS-BA) (6IN) GAMMA RAY CONTRIBUTION FROM THORIUM AND POTASSIUM
 SGR .GAPI               :   (HNGS-BA) (6IN) SPECTROSCOPY GAMMA RAY
 HURA.PPM                :   URANIUM CONCENTRATION
 HTHO.PPM                :   THORIUM CONCENTRATION
 HFK .V/V                :   POTASSIUM CONCENTRATION
 WTOC.V/V                :   Dry Weight Total Organic Carbon
 WCARB.V/V               :   Weight fraction of carbonate
 WQTZ.V/V                :   Weight fraction of quartz
 RHGE.KG/M3              :   MATRIX DENSITY FROM ELEMENTAL CONCENTRATIONS - SPECTROLITH WALK2 MODEL 
 HCAL1.MM                :   Caliper  (HDRS-H[1])  (1IN) CALIPER
 HCAL2.MM                :   Caliper  (HDRS-H[2])  (1IN) CALIPER
 HD1_PPC1.MM             :   PPC1 ELLIPSE HOLE DIAMETER 1 {F14.5}
 HD2_PPC1.MM             :   PPC1 ELLIPSE HOLE DIAMETER 2 {F14.5}
 GR_ND.GAPI  42 310 00 00:   Gamma Ray
 SP  .MV     05 010 01 00:   Spontaneous Potential
 DTP .US/M   60 520 00 00:   Compressional Wave
 DEN .KG/M3  42 350 01 00:   HRDD STANDARD RESOLUTION FORMATION DENSITY
 PE  .B/E                :   HRDD Standard Resolution Formation Photoelectric Factor [F12.3]
 HDRA.KG/M3              :   HRDD DENSITY CORRECTION
 PDS .V/V                :   DENSITY POROSITY WITH SANDSTONE CALIBRATION
 PDL .V/V                :   DENSITY POROSITY WITH LIMESTONE CALIBRATION
 POS .V/V                :   NEUTRON POROSITY WITH SANDSTONE CALIBRATION
 POL .V/V                :   NEUTRON POROSITY WITH LIMESTONE CALIBRATION
 SPHI.V/V                :   Sonic Porosity [F12.3]
 PHIZ.V/V                :   INTERGRANULAR POROSITY
 RS  .OHMM               :   ARRAY INDUCTION FOUR FOOT RESISTIVITY A20
 RM  .OHMM               :   ARRAY INDUCTION FOUR FOOT RESISTIVITY A30
 RD  .OHMM   07 120 46 00:   Deep Induction Resistivity
~PARAMETER INFORMATION
#MNEM.UNIT          VALUE    DESCRIPTION
#----------   ------------   ------------------------------
 EKB .M          516.8000:   Kelly bushing
 EGL .M          518.9000:   Ground level
 EDF .M          516.5000:   Drilling floor
 EPD .M          518.9000:   Permanent datum
 TD  .M            0.0000:   Total depth
 NRUN.                  1:   Number of Runs
#--RUN 1---   ------------   The following are for Run 1---
 RUN .                  1:   Run 1
 DATE.        12-JAN-2023:   Logging Date
 TMAX.degC      105.00000:   (Borehole)      Max Recorded Temp
~Tops
SCATTER                           612.0
GARBUTT                           659.0
FANTASQUE                         696.5
MATTSON                           704.0
DEBOLT                            734.0
SHUNDER                           989.0
PEKISKO                          1109.0
BANFF                            1160.0
EXSHAW                           1690.0
KOTCHO                           1720.0
TETCHO                           1974.5
TROUT RIVER                      1986.0
KAKISA                           2051.5
FORT SIMPSON                     2101.0
MUSKWA                           2949.5
OTTER PARK                       3026.0
KLUA                             3083.5
EVIE                             3098.0
KEG RIVER                        3148.0
~A  DEPTH     DWTC      WCLAY       WCLC       WDOL       WPYR       WQFM       ECGR       HCGR        SGR       HURA       HTHO        HFK       WTOC      WCARB     WQTZ       RHGE      HCAL1      HCAL2   HD1_PPC1   HD2_PPC1      GR_ND         SP        DTP        DEN         PE       HDRA        PDS        PDL        POS        POL       SPHI       PHIZ         RS         RM         RD
# ...
 3152.8000     0.1136     0.0000     0.9554     0.0021     0.0030     0.0385    31.2395     9.5187    22.5102     1.7554     1.5223     0.2609    -0.0012     0.9575     0.0158  2712.0642   201.2275   201.6360   199.9399   200.3149    27.8850 -1253.7938   163.9321  2703.4707     5.2735     4.9754    -0.0324     0.0038     0.0141    -0.0098    -0.0755     0.0057  1950.0000  1950.0000  1950.0000
 3153.0000     0.1127     0.0000     0.9492     0.0075     0.0034     0.0313    30.0978     8.8587    20.8857     1.6218     1.5081     0.2272    -0.0021     0.9567     0.0147  2713.9827   200.7508   201.7673   199.7392   200.3193    26.8618 -1257.3202   163.6655  2704.4717     5.2523     4.3573    -0.0330     0.0032     0.0127    -0.0112    -0.0766     0.0043  1950.0000  1950.0000  1950.0000
 3153.2000     0.1107     0.0000     0.9457     0.0100     0.0024     0.0310    28.3164     7.9236    18.8177     1.4429     1.2928     0.2128    -0.0040     0.9557     0.0149  2713.6177   200.9558   202.0377   199.7138   200.6693    25.2782 -1256.5360   163.1948  2716.1804     5.2795     6.9595    -0.0401    -0.0036     0.0128    -0.0109    -0.0786     0.0034  1950.0000  1950.0000  1950.0000
 3153.4000     0.1084     0.0000     0.9506     0.0037     0.0020     0.0395    26.1136     7.2250    18.1685     1.4204     1.1674     0.1960    -0.0063     0.9543     0.0174  2711.0049   201.0629   202.0507   199.7248   200.4590    23.3115 -1253.6584   163.1471  2722.8342     5.2804    10.1100    -0.0441    -0.0075     0.0112    -0.0121    -0.0788     0.0039  1950.0000  1950.0000  1950.0000
 3153.6000     0.1058     0.0000     0.9529     0.0002     0.0007     0.0462    24.9206     6.9840    18.8379     1.5460     1.1753     0.1814    -0.0086     0.9531     0.0189  2708.7458   200.6206   202.5420   200.0167   200.9567    22.2430 -1250.7991   163.1662  2722.5925     5.2091    10.6084    -0.0440    -0.0074     0.0104    -0.0128    -0.0787     0.0052  1950.0000  1950.0000  1950.0000
 3153.8000     0.1045     0.0000     0.9552     0.0000     0.0001     0.0448    25.8667     6.8252    20.5183     1.7513     0.9452     0.2120    -0.0104     0.9552     0.0179  2708.0664   201.0937   201.4922   199.7903   199.7847    23.0915 -1251.7480   163.0808  2716.8450     5.1185     7.1029    -0.0405    -0.0040     0.0120    -0.0114    -0.0791     0.0059  1950.0000  1950.0000  1950.0000
 3154.0000     0.1044     0.0008     0.9609     0.0005     0.0000     0.0379    29.2132     7.6446    22.4916     1.8942     0.8552     0.2723    -0.0111     0.9614     0.0150  2708.2559   201.0420   201.4505   200.0329   199.9643    26.0455 -1254.3014   162.9470  2705.7942     5.1327     2.5363    -0.0338     0.0025     0.0113    -0.0121    -0.0797     0.0042  1950.0000  1950.0000  1950.0000
 3154.2000     0.1058     0.0077     0.9601     0.0086     0.0000     0.0236    32.4708     7.9217    23.1068     1.9451     0.8433     0.2895    -0.0103     0.9687     0.0116  2710.0742   201.4954   201.6324   199.7340   199.9590    28.9467 -1255.6216   162.8829  2696.7625     5.2271     1.2900    -0.0283     0.0077     0.0119    -0.0115    -0.0800     0.0030  1950.0000  1950.0000  1950.0000
 3154.4000     0.1079     0.0107     0.9496     0.0219     0.0000     0.0178    32.2062     6.8100    20.7227     1.7863     0.7845     0.2387    -0.0083     0.9715     0.0105  2712.2964   201.3167   201.6306   199.7179   200.0228    28.7360 -1256.8214   162.5541  2696.7817     5.2942     2.1653    -0.0283     0.0077     0.0125    -0.0112    -0.0814     0.0034  1950.0000  1950.0000  1950.0000
 3154.6000     0.1106     0.0050     0.9618     0.0066     0.0000     0.0266    29.3158     6.6727    17.6308     1.4163     0.7977     0.2289    -0.0054     0.9684     0.0132  2710.3413   201.3714   201.5181   199.8807   200.3162    26.1654 -1259.3093   162.2426  2710.3525     5.3430     5.5924    -0.0366    -0.0002     0.0145    -0.0096    -0.0828     0.0028  1950.0000  1950.0000  1950.0000
 3154.8000     0.1144     0.0000     0.9580     0.0000     0.0000     0.0420    27.2560     6.8319    17.5122     1.3996     0.7068     0.2531    -0.0013     0.9580     0.0185  2709.3716   201.3411   201.6187   200.0309   200.5879    24.3277 -1260.1490   161.7045  2715.0300     5.3569     5.8371    -0.0394    -0.0029     0.0149    -0.0091    -0.0851     0.0012  1950.0000  1950.0000  1950.0000
 3155.0000     0.1179     0.0000     0.9511     0.0000     0.0000     0.0489    27.7770     8.1045    18.2822     1.3542     0.7989     0.3071     0.0035     0.9511     0.0213  2709.4805   201.7340   201.4731   199.9958   200.6629    24.7562 -1258.8494   161.0845  2706.3945     5.3191     2.2004    -0.0342     0.0021     0.0144    -0.0094    -0.0878     0.0004  1950.0000  1950.0000  1912.6166
 3155.2000     0.1218     0.0000     0.9457     0.0010     0.0001     0.0532    25.9022     9.6276    19.0852     1.2523     0.8992     0.3733     0.0080     0.9467     0.0227  2710.1958   201.8854   201.9415   199.7062   200.4755    23.0948 -1262.1936   161.2070  2702.3699     5.2836     0.4602    -0.0317     0.0045     0.0107    -0.0127    -0.0873     0.0010  1950.0000  1950.0000  1806.8173
 3155.4000     0.1248     0.0000     0.9312     0.0112     0.0017     0.0560    23.0633     9.5865    17.8956     1.1231     0.9367     0.3646     0.0113     0.9423     0.0236  2712.7341   201.5470   203.1261   199.9357   200.5353    20.5673 -1266.4675   161.1942  2706.7473     5.2264     0.4538    -0.0344     0.0019     0.0129    -0.0106    -0.0874     0.0008  1950.0000  1949.5358  1675.5266
 3155.6000     0.1263     0.0015     0.8947     0.0453     0.0047     0.0536    20.6555     9.0316    16.4808     1.0323     0.9278     0.3358     0.0131     0.9401     0.0240  2718.7512   201.5300   202.8157   199.6886   200.9798    18.4269 -1271.1824   161.6875  2713.4480     5.1556     0.9731    -0.0385    -0.0020     0.0126    -0.0112    -0.0852     0.0000  1950.0000  1922.0306  1553.4264
 3155.8000     0.1252     0.0072     0.8322     0.1031     0.0065     0.0505    22.0823     9.4598    17.3144     1.0620     0.9876     0.3490     0.0120     0.9352     0.0251  2727.8782   201.1668   202.4339   199.7204   200.0716    19.7101 -1266.5759   162.0947  2721.8088     5.0203     0.7516    -0.0435    -0.0069     0.0176    -0.0076    -0.0834     0.0002  1950.0000  1861.4686  1462.5979
 3156.0000     0.1223     0.0107     0.7625     0.1671     0.0079     0.0498    24.2272    10.3539    17.9166     1.0276     1.0163     0.3930     0.0092     0.9296     0.0264  2738.0940   201.4691   202.0453   199.7088   200.3106    21.6163 -1261.6442   161.7595  2731.0996     4.8392     0.2638    -0.0492    -0.0123     0.0271     0.0005    -0.0849     0.0005  1950.0000  1758.7517  1387.4314
 3156.2000     0.1193     0.0218     0.7215     0.2014     0.0080     0.0435    23.9110     9.7428    17.4226     1.0918     0.9697     0.3675     0.0065     0.9229     0.0281  2743.1711   201.3227   201.3117   199.7313   200.3286    21.3307 -1264.8354   161.8895  2733.7773     4.7417    -0.7022    -0.0508    -0.0139     0.0231    -0.0031    -0.0843     0.0011  1950.0000  1621.6993  1320.9510
 3156.4000     0.1169     0.0311     0.7522     0.1711     0.0059     0.0370    25.9024     9.8707    18.5410     1.2145     1.0891     0.3541     0.0040     0.9233     0.0283  2736.9578   201.3339   201.1729   199.7253   199.9661    23.1168 -1267.1405   161.8510  2739.7854     4.6593    -0.4269    -0.0544    -0.0174     0.0259    -0.0007    -0.0845     0.0012  1950.0000  1502.7637  1292.0891
 3156.6000     0.1151     0.0258     0.8314     0.1011     0.0020     0.0394    26.0802    10.3818    19.2919     1.2457     1.3144     0.3436     0.0018     0.9326     0.0261  2723.9927   201.5243   201.1706   199.7393   200.1791    23.2768 -1269.3717   161.6357  2745.1289     4.5988     1.2295    -0.0577    -0.0205     0.0262    -0.0003    -0.0854     0.0007  1950.0000  1452.5267  1330.8210
 3156.8000     0.1143     0.0091     0.8993     0.0489     0.0000     0.0427    24.4050     8.6693    17.6689     1.2878     1.2279     0.2647     0.0003     0.9482     0.0213  2714.5344   201.4493   201.5006   199.4212   200.6317    21.7851 -1268.4991   161.5958  2734.9763     4.7306     2.0860    -0.0515    -0.0146     0.0200    -0.0058    -0.0856     0.0034  1950.0000  1489.3029  1449.5369
