~VERSION INFORMATION
 VERS.               2.10:   CWLS LOG ASCII STANDARD - VERSION 2.10
 WRAP.                 NO:   ONE LINE PER DEPTH STEP
~WELL INFORMATION
#MNEM.UNIT      DATA TYPE    INFORMATION
#----------   ------------   ------------------------------
 STRT.M         2800.0000:   Start depth
 STOP.M         3210.0000:   Stop depth
 STEP.M            0.2000:   Step length
 NULL.          -999.2500:   No value
 WELL.                   :   Well
 FLD .                   :   Field
 LOC .                   :   Location
 SRVC.                   :   Service company
 DATE.        12-JAN-2023:   logging date
 WSTA.           Location:   Well status
~CURVE INFORMATION
#MNEM.UNIT       API CODE    CURVE DESCRIPTION
#----------   ------------   ------------------------------
 DEPT.M                  :   DEPTH
 DWTC.V/V                :   Dry Weight Total Carbon (Borehole corrected) {F13.4}
 WCLAY.V/V               :   Dry Weight of Clay
 WCLC.V/V                :   Dry Weight Calcite (Inelastic Capture Closure) {F13.4}
 WDOL.V/V                :   Dry Weight Dolomite (Inelastic Capture Closure) {F13.4}
 WPYR.V/V                :   WEIGHT FRACTION PYRITE
 WQFM.V/V                :   WEIGHT FRACTION QUARTZ AND FELDSPAR AND MICA
 ECGR.GAPI               :   GAMMA-RAY {F13.5}
 HCGR.GAPI               :   (HNGS-BA) (6IN) GAMMA RAY CONTRIBUTION FROM THORIUM AND POTASSIUM
 SGR .GAPI               :   (HNGS-BA) (6IN) SPECTROSCOPY GAMMA RAY
 HURA.PPM                :   URANIUM CONCENTRATION
 HTHO.PPM                :   THORIUM CONCENTRATION
 HFK .V/V                :   POTASSIUM CONCENTRATION
 WTOC.V/V                :   Dry Weight Total Organic Carbon
 WCARB.V/V               :   Weight fraction of carbonate
 WQTZ.V/V                :   Weight fraction of quartz
 RHGE.KG/M3              :   MATRIX DENSITY FROM ELEMENTAL CONCENTRATIONS - SPECTROLITH WALK2 MODEL 
 HCAL1.MM                :   Caliper  (HDRS-H[1])  (1IN) CALIPER
 HCAL2.MM                :   Caliper  (HDRS-H[2])  (1IN) CALIPER
 HD1_PPC1.MM             :   PPC1 ELLIPSE HOLE DIAMETER 1 {F14.5}
 HD2_PPC1.MM             :   PPC1 ELLIPSE HOLE DIAMETER 2 {F14.5}
 GR_ND.GAPI  42 310 00 00:   Gamma Ray
 SP  .MV     05 010 01 00:   Spontaneous Potential
 DTP .US/M   60 520 00 00:   Compressional Wave
 DEN .KG/M3  42 350 01 00:   HRDD STANDARD RESOLUTION FORMATION DENSITY
 PE  .B/E                :   HRDD Standard Resolution Formation Photoelectric Factor [F12.3]
 HDRA.KG/M3              :   HRDD DENSITY CORRECTION
 PDS .V/V                :   DENSITY POROSITY WITH SANDSTONE CALIBRATION
 PDL .V/V                :   DENSITY POROSITY WITH LIMESTONE CALIBRATION
 POS .V/V                :   NEUTRON POROSITY WITH SANDSTONE CALIBRATION
 POL .V/V                :   NEUTRON POROSITY WITH LIMESTONE CALIBRATION
 SPHI.V/V                :   Sonic Porosity [F12.3]
 PHIZ.V/V                :   INTERGRANULAR POROSITY
 RS  .OHMM               :   ARRAY INDUCTION FOUR FOOT RESISTIVITY A20
 RM  .OHMM               :   ARRAY INDUCTION FOUR FOOT RESISTIVITY A30
 RD  .OHMM   07 120 46 00:   Deep Induction Resistivity
~PARAMETER INFORMATION
#MNEM.UNIT          VALUE    DESCRIPTION
#----------   ------------   ------------------------------
 EKB .M          516.8000:   Kelly bushing
 EGL .M          518.9000:   Ground level
 EDF .M          516.5000:   Drilling floor
 EPD .M          518.9000:   Permanent datum
 TD  .M            0.0000:   Total depth
 NRUN.                  1:   Number of Runs
#--RUN 1---   ------------   The following are for Run 1---
 RUN .                  1:   Run 1
 DATE.        12-JAN-2023:   Logging Date
 TMAX.degC      105.00000:   (Borehole)      Max Recorded Temp
~Tops
SCATTER                           612.0
GARBUTT                           659.0
FANTASQUE                         696.5
MATTSON                           704.0
DEBOLT                            734.0
SHUNDER                           989.0
PEKISKO                          1109.0
BANFF                            1160.0
EXSHAW                           1690.0
KOTCHO                           1720.0
TETCHO                           1974.5
TROUT RIVER                      1986.0
KAKISA                           2051.5
FORT SIMPSON                     2101.0
MUSKWA                           2949.5
OTTER PARK                       3026.0
KLUA                             3083.5
EVIE                             3098.0
KEG RIVER                        3148.0
~A  DEPTH     DWTC      WCLAY       WCLC       WDOL       WPYR       WQFM       ECGR       HCGR        SGR       HURA       HTHO        HFK       WTOC      WCARB     WQTZ       RHGE      HCAL1      HCAL2   HD1_PPC1   HD2_PPC1      GR_ND         SP        DTP        DEN         PE       HDRA        PDS        PDL        POS        POL       SPHI       PHIZ         RS         RM         RD
# ...
 2854.6000     0.0178     0.4226     0.0181     0.0508     0.0232     0.4852   124.6450    84.1253   108.5184     3.8263    12.4709     2.4745     0.0102     0.0689     0.3525  2752.3147   201.9023   200.7693   207.3326   206.7473   109.9997 -1170.3131   282.7884  2666.2866     4.3438     1.9067    -0.0099     0.0256     0.2635     0.2117     0.2189     0.1545     3.9858     3.9058     3.8770
 2854.8000     0.0166     0.4244     0.0153     0.0399     0.0272     0.4933   123.4808    81.3042   108.1564     4.1418    11.7378     2.4453     0.0098     0.0552     0.3605  2751.5591   201.7650   201.3257   207.9787   206.6236   108.9451 -1169.7037   283.9231  2669.3274     4.3875     4.5608    -0.0117     0.0238     0.2524     0.2008     0.2206     0.1527     3.9455     3.8588     3.8484
 2855.0000     0.0147     0.4255     0.0145     0.0257     0.0291     0.5052   122.3815    80.8792   109.3525     4.3707    11.5032     2.4621     0.0088     0.0402     0.3685  2749.6465   202.0395   200.9436   207.9978   207.2064   107.9402 -1168.6632   286.3391  2673.8279     4.2893     5.5333    -0.0144     0.0212     0.2654     0.2136     0.2240     0.1567     3.9378     3.8415     3.8454
 2855.2000     0.0133     0.4292     0.0059     0.0310     0.0281     0.5059   120.3942    76.9608   110.6780     4.9680    10.7287     2.3799     0.0075     0.0368     0.3738  2747.8738   202.4348   201.7484   206.5416   206.4735   106.3634 -1173.6136   289.2033  2675.2107     4.1445     4.2188    -0.0153     0.0203     0.2584     0.2069     0.2277     0.1582     3.9591     3.8538     3.8500
 2855.4000     0.0142     0.4309     0.0008     0.0500     0.0259     0.4949   121.3753    72.1111   110.1577     5.4688    10.1512     2.2131     0.0069     0.0508     0.3707  2747.3533   202.1655   200.6403   206.8090   205.7925   107.2124 -1172.0704   290.3756  2663.7981     4.1412     0.7743    -0.0084     0.0270     0.2568     0.2051     0.2295     0.1544     3.9929     3.8770     3.8207
 2855.6000     0.0164     0.4093     0.0020     0.0716     0.0219     0.4951   130.1396    68.7079   111.9795     6.0480     9.4532     2.1461     0.0070     0.0736     0.3615  2746.5432   202.2885   200.6162   206.8698   205.5747   115.0921 -1171.1195   294.1122  2635.8447     4.3555    -4.4749     0.0086     0.0434     0.2416     0.1900     0.2346     0.1501     4.0553     3.9350     3.8260
 2855.8000     0.0180     0.3688     0.0143     0.0799     0.0165     0.5206   153.3540    73.0505   124.2892     7.0177     9.6732     2.3462     0.0063     0.0942     0.3501  2745.8843   201.0577   200.9363   206.7358   205.7536   135.5422 -1170.4679   295.6551  2613.2793     4.7961    -6.2107     0.0223     0.0566     0.2410     0.1895     0.2366     0.1511     4.1446     4.0150     3.8773
 2856.0000     0.0174     0.3340     0.0280     0.0810     0.0140     0.5436   171.0906    84.3526   143.1866     8.0596    11.2243     2.6999     0.0042     0.1083     0.3423  2747.1802   201.9590   200.8488   206.7368   205.8062   151.1767 -1170.2322   296.3768  2609.9878     5.1977    -5.3258     0.0243     0.0585     0.2387     0.1873     0.2376     0.1575     4.2149     4.0994     3.9054
 2856.2000     0.0145     0.3128     0.0368     0.0790     0.0157     0.5557   179.2386    88.4364   151.5820     8.5836    11.8662     2.8138     0.0003     0.1158     0.3374  2751.3694   201.8191   201.3593   206.5615   205.7530   158.3228 -1174.2883   295.6277  2613.2014     5.1584    -2.7824     0.0223     0.0566     0.2562     0.2044     0.2366     0.1615     4.2920     4.2070     4.0071
 2856.4000     0.0093     0.3092     0.0317     0.0837     0.0207     0.5545   170.7930    85.6601   145.5209     8.0847    11.9620     2.6455    -0.0038     0.1154     0.3355  2758.4341   201.4298   201.8278   206.6220   205.4157   150.5877 -1175.4470   294.1425  2631.4653     4.8246     2.9501     0.0112     0.0459     0.2495     0.1979     0.2346     0.1613     4.2869     4.2120     4.0490
 2856.6000     0.0077     0.3180     0.0385     0.0674     0.0225     0.5534   149.1350    79.5042   133.2216     7.2425    11.4252     2.4002    -0.0048     0.1059     0.3382  2759.3860   202.2746   202.2501   208.4787   206.7645   131.4570 -1178.1711   292.0706  2663.9880     4.5176     6.8059    -0.0085     0.0269     0.2457     0.1942     0.2318     0.1589     4.1817     4.1269     3.9857
 2856.8000     0.0099     0.3364     0.0554     0.0280     0.0207     0.5595   129.4534    76.6177   123.9045     6.4213    11.2769     2.2676    -0.0009     0.0834     0.3458  2753.2419   202.7829   202.4519   207.3484   206.8211   114.2255 -1178.2728   289.2013  2683.1462     4.4084     5.6392    -0.0201     0.0157     0.2436     0.1921     0.2279     0.1522     4.0762     4.0199     3.9097
 2857.0000     0.0142     0.3413     0.0634     0.0053     0.0153     0.5748   128.2585    74.1961   115.1436     5.6826    11.0715     2.1701     0.0051     0.0686     0.3511  2747.0283   202.8122   202.1619   207.3642   206.5855   113.1559 -1178.5283   287.5981  2676.6184     4.4127     2.0380    -0.0161     0.0195     0.2497     0.1980     0.2257     0.1513     3.9932     3.9244     3.8117
 2857.2000     0.0201     0.3380     0.0651     0.0000     0.0102     0.5867   130.5649    73.5908   110.4694     5.1723    11.2375     2.1086     0.0117     0.0651     0.3530  2742.2898   202.3535   201.9467   207.9621   206.4188   115.0841 -1177.8179   288.3001  2665.3228     4.3928     0.1694    -0.0093     0.0261     0.2486     0.1969     0.2267     0.1506     3.9928     3.9137     3.7791
 2857.4000     0.0257     0.3368     0.0631     0.0072     0.0084     0.5846   128.9366    78.7812   116.5457     5.4463    12.2039     2.2277     0.0167     0.0703     0.3505  2741.2634   202.3669   201.9735   207.2509   206.9722   113.5536 -1175.5527   290.0169  2640.6604     4.2697    -1.4781     0.0056     0.0405     0.2454     0.1938     0.2290     0.1508     4.0451     3.9567     3.8012
 2857.6000     0.0291     0.3345     0.0534     0.0289     0.0076     0.5755   142.6162    83.9158   126.6684     6.2137    13.1324     2.3501     0.0193     0.0823     0.3456  2742.8979   202.3293   201.1877   206.4242   206.5130   126.0433 -1175.0721   293.2242  2617.4014     4.1110    -0.1849     0.0198     0.0541     0.2481     0.1966     0.2334     0.1552     4.1100     4.0204     3.8431
 2857.8000     0.0308     0.3487     0.0422     0.0475     0.0079     0.5537   166.0222    92.9844   138.0175     6.6216    14.8988     2.5447     0.0200     0.0897     0.3430  2744.5620   202.5561   201.1479   206.1075   206.1780   146.6462 -1174.0157   293.2849  2609.7915     4.0074     2.8930     0.0244     0.0586     0.2556     0.2039     0.2335     0.1598     4.1715     4.0854     3.8908
 2858.0000     0.0302     0.3845     0.0235     0.0666     0.0115     0.5139   178.2391    99.1536   147.7014     7.1299    15.7754     2.7327     0.0195     0.0900     0.3433  2749.8984   202.4378   201.7436   207.2734   206.1581   157.4380 -1174.3578   293.0102  2608.6780     4.0881     1.5344     0.0250     0.0593     0.2520     0.2004     0.2331     0.1616     4.2104     4.1354     3.9290
 2858.2000     0.0283     0.4247     0.0076     0.0741     0.0177     0.4759   178.9655    98.6969   147.2458     7.1276    15.8643     2.6925     0.0187     0.0817     0.3475  2757.8564   201.9347   201.4823   206.2895   205.8477   158.2963 -1175.2308   290.4936  2621.2058     4.3167    -2.5067     0.0175     0.0519     0.2508     0.1992     0.2297     0.1628     4.2541     4.1881     3.9706
 2858.4000     0.0256     0.4453     0.0105     0.0464     0.0239     0.4731   163.4789    89.1909   133.4446     6.4946    14.1796     2.4599     0.0180     0.0569     0.3508  2766.0000   202.0453   201.6598   206.6038   206.6207   144.7124 -1176.2106   287.1743  2637.4907     4.5773    -7.9783     0.0076     0.0424     0.2598     0.2078     0.2254     0.1538     4.3315     4.2268     4.0023
 2858.6000     0.0223     0.4251     0.0242     0.0162     0.0249     0.5099   134.9723    77.8082   113.0271     5.1581    12.6480     2.0985     0.0164     0.0405     0.3499  2771.1782   201.9493   201.5182   207.0453   207.1114   119.0839 -1175.9578   284.9080  2665.5083     4.6770    -7.7376    -0.0094     0.0260     0.2343     0.1829     0.2219     0.1410     4.4236     4.3448     4.0881
