~VERSION INFORMATION
 VERS.               2.10:   CWLS LOG ASCII STANDARD - VERSION 2.10
 WRAP.                 NO:   ONE LINE PER DEPTH STEP
~WELL INFORMATION
#MNEM.UNIT      DATA TYPE    INFORMATION
#----------   ------------   ------------------------------
 STRT.M         2800.0000:   Start depth
 STOP.M         3210.0000:   Stop depth
 STEP.M            0.2000:   Step length
 NULL.          -999.2500:   No value
 WELL.                   :   Well
 FLD .                   :   Field
 LOC .                   :   Location
 SRVC.                   :   Service company
 DATE.        12-JAN-2023:   logging date
 WSTA.           Location:   Well status
~CURVE INFORMATION
#MNEM.UNIT       API CODE    CURVE DESCRIPTION
#----------   ------------   ------------------------------
 DEPT.M                  :   DEPTH
 DWTC.V/V                :   Dry Weight Total Carbon (Borehole corrected) {F13.4}
 WCLAY.V/V               :   Dry Weight of Clay
 WCLC.V/V                :   Dry Weight Calcite (Inelastic Capture Closure) {F13.4}
 WDOL.V/V                :   Dry Weight Dolomite (Inelastic Capture Closure) {F13.4}
 WPYR.V/V                :   WEIGHT FRACTION PYRITE
 WQFM.V/V                :   WEIGHT FRACTION QUARTZ AND FELDSPAR AND MICA
 ECGR.GAPI               :   GAMMA-RAY {F13.5}
 HCGR.GAPI               :   (HNGS-BA) (6IN) GAMMA RAY CONTRIBUTION FROM THORIUM AND POTASSIUM
 SGR .GAPI               :   (HNGS-BA) (6IN) SPECTROSCOPY GAMMA RAY
 HURA.PPM                :   URANIUM CONCENTRATION
 HTHO.PPM                :   THORIUM CONCENTRATION
 HFK .V/V                :   POTASSIUM CONCENTRATION
 WTOC.V/V                :   Dry Weight Total Organic Carbon
 WCARB.V/V               :   Weight fraction of carbonate
 WQTZ.V/V                :   Weight fraction of quartz
 RHGE.KG/M3              :   MATRIX DENSITY FROM ELEMENTAL CONCENTRATIONS - SPECTROLITH WALK2 MODEL 
 HCAL1.MM                :   Caliper  (HDRS-H[1])  (1IN) CALIPER
 HCAL2.MM                :   Caliper  (HDRS-H[2])  (1IN) CALIPER
 HD1_PPC1.MM             :   PPC1 ELLIPSE HOLE DIAMETER 1 {F14.5}
 HD2_PPC1.MM             :   PPC1 ELLIPSE HOLE DIAMETER 2 {F14.5}
 GR_ND.GAPI  42 310 00 00:   Gamma Ray
 SP  .MV     05 010 01 00:   Spontaneous Potential
 DTP .US/M   60 520 00 00:   Compressional Wave
 DEN .KG/M3  42 350 01 00:   HRDD STANDARD RESOLUTION FORMATION DENSITY
 PE  .B/E                :   HRDD Standard Resolution Formation Photoelectric Factor [F12.3]
 HDRA.KG/M3              :   HRDD DENSITY CORRECTION
 PDS .V/V                :   DENSITY POROSITY WITH SANDSTONE CALIBRATION
 PDL .V/V                :   DENSITY POROSITY WITH LIMESTONE CALIBRATION
 POS .V/V                :   NEUTRON POROSITY WITH SANDSTONE CALIBRATION
 POL .V/V                :   NEUTRON POROSITY WITH LIMESTONE CALIBRATION
 SPHI.V/V                :   Sonic Porosity [F12.3]
 PHIZ.V/V                :   INTERGRANULAR POROSITY
 RS  .OHMM               :   ARRAY INDUCTION FOUR FOOT RESISTIVITY A20
 RM  .OHMM               :   ARRAY INDUCTION FOUR FOOT RESISTIVITY A30
 RD  .OHMM   07 120 46 00:   Deep Induction Resistivity
~PARAMETER INFORMATION
#MNEM.UNIT          VALUE    DESCRIPTION
#----------   ------------   ------------------------------
 EKB .M          516.8000:   Kelly bushing
 EGL .M          518.9000:   Ground level
 EDF .M          516.5000:   Drilling floor
 EPD .M          518.9000:   Permanent datum
 TD  .M            0.0000:   Total depth
 NRUN.                  1:   Number of Runs
#--RUN 1---   ------------   The following are for Run 1---
 RUN .                  1:   Run 1
 DATE.        12-JAN-2023:   Logging Date
 TMAX.degC      105.00000:   (Borehole)      Max Recorded Temp
~Tops
SCATTER                           612.0
GARBUTT                           659.0
FANTASQUE                         696.5
MATTSON                           704.0
DEBOLT                            734.0
SHUNDER                           989.0
PEKISKO                          1109.0
BANFF                            1160.0
EXSHAW                           1690.0
KOTCHO                           1720.0
TETCHO                           1974.5
TROUT RIVER                      1986.0
KAKISA                           2051.5
FORT SIMPSON                     2101.0
MUSKWA                           2949.5
OTTER PARK                       3026.0
KLUA                             3083.5
EVIE                             3098.0
KEG RIVER                        3148.0
~A  DEPTH     DWTC      WCLAY       WCLC       WDOL       WPYR       WQFM       ECGR       HCGR        SGR       HURA       HTHO        HFK       WTOC      WCARB     WQTZ       RHGE      HCAL1      HCAL2   HD1_PPC1   HD2_PPC1      GR_ND         SP        DTP        DEN         PE       HDRA        PDS        PDL        POS        POL       SPHI       PHIZ         RS         RM         RD
# ...
 3043.6000     0.0453     0.2195     0.0944     0.1927     0.0174     0.4765   104.6065    57.2424    80.5185     3.2259     7.8104     1.7988     0.0105     0.2884     0.2573  2784.0652   200.1788   201.3687   199.6972   199.8432    93.4928 -1257.3878   233.0824  2736.6892     4.7642     3.7376    -0.0525    -0.0156     0.1699     0.1216     0.1323     0.0989    17.2838    15.9706    15.6173
 3043.8000     0.0430     0.2025     0.0858     0.1773     0.0181     0.5162   109.0115    60.2171    88.8829     3.8785     8.1002     1.9121     0.0110     0.2631     0.2708  2777.8149   200.1809   201.0606   199.8634   199.9425    97.4406 -1257.4359   236.2945  2681.8687     4.6307    -4.3793    -0.0193     0.0165     0.1790     0.1301     0.1390     0.1032    17.3457    15.8465    15.1925
 3044.0000     0.0400     0.1716     0.0854     0.1283     0.0141     0.6006   114.5753    62.8893    95.5964     4.3519     8.4988     1.9903     0.0127     0.2137     0.3000  2758.7153   199.8171   200.8829   200.2733   199.8952   102.4093 -1256.8073   242.0760  2625.7754     4.4798   -10.4000     0.0147     0.0493     0.1800     0.1311     0.1506     0.1043    17.2693    15.8488    15.2983
 3044.2000     0.0388     0.1485     0.0841     0.0943     0.0113     0.6616   129.0855    65.7639   100.1422     4.5658     8.7975     2.0966     0.0162     0.1784     0.3220  2744.0193   199.1291   200.7013   200.0102   199.9584   115.3979 -1256.7197   248.4062  2612.8269     4.4742    -9.3170     0.0225     0.0568     0.1654     0.1173     0.1627     0.1106    17.6080    16.5316    14.8875
 3044.4000     0.0383     0.1549     0.0761     0.0591     0.0111     0.6987   139.0206    71.6740   109.2584     4.9879     9.3091     2.3327     0.0199     0.1352     0.3458  2730.4063   198.8238   201.2679   199.8622   200.0997   124.1172 -1260.2970   252.7749  2612.2104     4.6302   -11.2437     0.0229     0.0572     0.1889     0.1394     0.1707     0.1286    14.9906    14.3892    12.9560
 3044.6000     0.0393     0.1861     0.0653     0.0476     0.0135     0.6875   140.3317    81.2972   123.6584     5.6197    10.4847     2.6586     0.0232     0.1129     0.3564  2726.2158   199.0159   201.4956   200.2500   200.0629   125.3250 -1261.0375   255.4522  2616.2612     4.7663   -11.9665     0.0205     0.0548     0.2212     0.1701     0.1755     0.1417    12.9469    12.7247    11.3773
 3044.8000     0.0418     0.2214     0.0733     0.0496     0.0165     0.6393   141.5496    87.7912   130.4087     5.6421    11.1980     2.8922     0.0257     0.1228     0.3490  2730.3469   199.1307   201.5308   200.3400   199.9507   126.4787 -1259.9094   257.7861  2642.0803     4.8089    -5.6897     0.0048     0.0397     0.2078     0.1573     0.1796     0.1337    11.5650    11.4507    10.5545
 3045.0000     0.0445     0.2480     0.1016     0.0451     0.0185     0.5869   132.1560    79.5532   117.0387     4.9305    10.1762     2.6158     0.0263     0.1467     0.3332  2737.2041   199.6383   200.9491   199.7889   199.8797   118.0593 -1259.9398   258.2350  2678.3267     4.8012     2.1430    -0.0172     0.0185     0.2034     0.1531     0.1803     0.1247    11.3093    11.1124    10.4149
 3045.2000     0.0460     0.2493     0.1401     0.0328     0.0179     0.5598   119.9767    71.0817   103.2793     4.2912     9.0457     2.3453     0.0255     0.1729     0.3170  2742.8201   199.3644   200.9288   200.0390   200.1803   107.2329 -1260.3925   257.3798  2695.0559     4.7391     3.1543    -0.0273     0.0087     0.1926     0.1428     0.1788     0.1173    11.2607    10.9267    10.4402
 3045.4000     0.0461     0.2490     0.1851     0.0071     0.0162     0.5427   112.9007    69.1890    95.6560     3.5973     9.1830     2.2182     0.0238     0.1922     0.3054  2744.0229   199.3637   201.2452   200.0470   199.6503   100.8877 -1260.9510   255.6808  2694.3601     4.6576     0.6958    -0.0269     0.0091     0.1811     0.1319     0.1760     0.1139    11.2139    10.7730    10.2863
 3045.6000     0.0448     0.2657     0.1971     0.0004     0.0160     0.5207   110.5152    72.1019    97.1157     3.4443     9.6130     2.3042     0.0215     0.1975     0.3028  2743.6936   199.6488   200.9734   200.1794   199.9544    98.7334 -1261.3654   254.2897  2700.2075     4.6790     3.6566    -0.0304     0.0057     0.1916     0.1418     0.1734     0.1182    11.2786    10.8079    10.2884
 3045.8000     0.0431     0.2819     0.1987     0.0000     0.0164     0.5030   112.0365    75.5520   100.5290     3.5598    10.2180     2.3897     0.0193     0.1987     0.3029  2742.7053   200.2370   201.4142   200.0707   200.1571   100.0812 -1262.8889   252.8061  2700.3882     4.6986     5.0413    -0.0305     0.0056     0.1875     0.1380     0.1708     0.1140    11.5049    10.9307    10.3123
 3046.0000     0.0417     0.2886     0.1950     0.0029     0.0176     0.4960   110.8403    76.8954   101.7208     3.6402    10.7401     2.3740     0.0176     0.1979     0.3039  2742.2515   200.1699   201.1042   199.7945   200.0067    99.0892 -1262.8885   250.0340  2693.5127     4.6934     3.0642    -0.0264     0.0096     0.1790     0.1301     0.1663     0.1086    11.7695    11.0792    10.3294
 3046.2000     0.0408     0.2923     0.1769     0.0238     0.0194     0.4876   107.6725    76.0529   100.7735     3.6209    10.9660     2.2894     0.0158     0.2007     0.3030  2744.9683   199.5318   201.0383   199.7256   200.1852    96.2864 -1265.1014   249.7095  2692.8494     4.6729     1.7688    -0.0260     0.0100     0.1807     0.1317     0.1651     0.1105    11.8113    11.0599    10.2843
 3046.4000     0.0390     0.3007     0.1603     0.0527     0.0194     0.4669   108.6701    72.5032    99.2152     3.8302    10.1821     2.2289     0.0126     0.2130     0.2979  2747.4546   199.7343   200.8836   200.0398   199.7835    97.1159 -1261.9329   249.2151  2698.7029     4.6069     1.9259    -0.0295     0.0066     0.1787     0.1297     0.1642     0.1122    11.6869    10.8680    10.3369
 3046.6000     0.0365     0.3031     0.1560     0.0751     0.0192     0.4466   109.1635    68.1853    96.4431     4.0193     9.4964     2.1098     0.0090     0.2311     0.2904  2748.9192   199.9349   201.0167   200.1226   199.9615    97.5667 -1261.8043   247.3887  2705.9219     4.5634     2.6592    -0.0339     0.0024     0.1811     0.1320     0.1608     0.1123    11.5009    10.6211    10.3466
 3046.8000     0.0348     0.3011     0.1707     0.0711     0.0205     0.4365   105.8054    65.6298    92.3700     3.8462     9.2102     2.0188     0.0060     0.2418     0.2862  2748.2300   199.5604   200.8545   199.7547   199.9637    94.5519 -1265.3756   246.6468  2714.9585     4.7065     5.3802    -0.0394    -0.0029     0.1792     0.1303     0.1596     0.1092    11.3568    10.2586    10.2797
 3047.0000     0.0338     0.3019     0.1989     0.0419     0.0217     0.4355   105.4729    64.6808    91.1883     3.7746     9.1496     1.9772     0.0047     0.2408     0.2875  2743.8945   199.3086   201.1639   200.1815   199.9569    94.2536 -1266.8687   246.3762  2722.5234     4.8865     6.9755    -0.0440    -0.0073     0.1810     0.1320     0.1589     0.1069    11.1266     9.9596    10.2171
 3047.2000     0.0344     0.3032     0.2303     0.0032     0.0231     0.4403   105.5855    64.5480    90.9518     3.8005     9.1088     1.9769     0.0050     0.2335     0.2937  2737.2095   198.9558   201.0308   200.1155   199.9572    94.3251 -1268.0391   244.9373  2715.7820     4.9488     4.2744    -0.0399    -0.0034     0.1803     0.1313     0.1562     0.1079    10.9321     9.5452     9.8870
 3047.4000     0.0357     0.3013     0.2442     0.0000     0.0229     0.4316   103.9903    64.2775    89.4505     3.5569     8.9672     1.9864     0.0059     0.2442     0.2924  2734.7705   199.2198   201.6351   199.7350   199.9642    92.9461 -1265.4341   244.4088  2707.9773     4.8535     1.3201    -0.0351     0.0012     0.1775     0.1286     0.1552     0.1092    11.2170     9.6965     9.8636
 3047.6000     0.0370     0.2847     0.2586     0.0018     0.0227     0.4322   103.2739    62.5835    87.2604     3.4547     8.7271     1.9346     0.0057     0.2604     0.2863  2735.4302   199.3501   201.2814   199.9048   199.8269    92.3104 -1265.4938   242.5901  2706.9404     4.6945     1.1987    -0.0345     0.0018     0.1805     0.1315     0.1517     0.1086    11.6431     9.7352     9.8956
