~VERSION INFORMATION
 VERS.               2.10:   CWLS LOG ASCII STANDARD - VERSION 2.10
 WRAP.                 NO:   ONE LINE PER DEPTH STEP
~WELL INFORMATION
#MNEM.UNIT      DATA TYPE    INFORMATION
#----------   ------------   ------------------------------
 STRT.M         2800.0000:   Start depth
 STOP.M         3210.0000:   Stop depth
 STEP.M            0.2000:   Step length
 NULL.          -999.2500:   No value
 WELL.                   :   Well
 FLD .                   :   Field
 LOC .                   :   Location
 SRVC.                   :   Service company
 DATE.        12-JAN-2023:   logging date
 WSTA.           Location:   Well status
~CURVE INFORMATION
#MNEM.UNIT       API CODE    CURVE DESCRIPTION
#----------   ------------   ------------------------------
 DEPT.M                  :   DEPTH
 DWTC.V/V                :   Dry Weight Total Carbon (Borehole corrected) {F13.4}
 WCLAY.V/V               :   Dry Weight of Clay
 WCLC.V/V                :   Dry Weight Calcite (Inelastic Capture Closure) {F13.4}
 WDOL.V/V                :   Dry Weight Dolomite (Inelastic Capture Closure) {F13.4}
 WPYR.V/V                :   WEIGHT FRACTION PYRITE
 WQFM.V/V                :   WEIGHT FRACTION QUARTZ AND FELDSPAR AND MICA
 ECGR.GAPI               :   GAMMA-RAY {F13.5}
 HCGR.GAPI               :   (HNGS-BA) (6IN) GAMMA RAY CONTRIBUTION FROM THORIUM AND POTASSIUM
 SGR .GAPI               :   (HNGS-BA) (6IN) SPECTROSCOPY GAMMA RAY
 HURA.PPM                :   URANIUM CONCENTRATION
 HTHO.PPM                :   THORIUM CONCENTRATION
 HFK .V/V                :   POTASSIUM CONCENTRATION
 WTOC.V/V                :   Dry Weight Total Organic Carbon
 WCARB.V/V               :   Weight fraction of carbonate
 WQTZ.V/V                :   Weight fraction of quartz
 RHGE.KG/M3              :   MATRIX DENSITY FROM ELEMENTAL CONCENTRATIONS - SPECTROLITH WALK2 MODEL 
 HCAL1.MM                :   Caliper  (HDRS-H[1])  (1IN) CALIPER
 HCAL2.MM                :   Caliper  (HDRS-H[2])  (1IN) CALIPER
 HD1_PPC1.MM             :   PPC1 ELLIPSE HOLE DIAMETER 1 {F14.5}
 HD2_PPC1.MM             :   PPC1 ELLIPSE HOLE DIAMETER 2 {F14.5}
 GR_ND.GAPI  42 310 00 00:   Gamma Ray
 SP  .MV     05 010 01 00:   Spontaneous Potential
 DTP .US/M   60 520 00 00:   Compressional Wave
 DEN .KG/M3  42 350 01 00:   HRDD STANDARD RESOLUTION FORMATION DENSITY
 PE  .B/E                :   HRDD Standard Resolution Formation Photoelectric Factor [F12.3]
 HDRA.KG/M3              :   HRDD DENSITY CORRECTION
 PDS .V/V                :   DENSITY POROSITY WITH SANDSTONE CALIBRATION
 PDL .V/V                :   DENSITY POROSITY WITH LIMESTONE CALIBRATION
 POS .V/V                :   NEUTRON POROSITY WITH SANDSTONE CALIBRATION
 POL .V/V                :   NEUTRON POROSITY WITH LIMESTONE CALIBRATION
 SPHI.V/V                :   Sonic Porosity [F12.3]
 PHIZ.V/V                :   INTERGRANULAR POROSITY
 RS  .OHMM               :   ARRAY INDUCTION FOUR FOOT RESISTIVITY A20
 RM  .OHMM               :   ARRAY INDUCTION FOUR FOOT RESISTIVITY A30
 RD  .OHMM   07 120 46 00:   Deep Induction Resistivity
~PARAMETER INFORMATION
#MNEM.UNIT          VALUE    DESCRIPTION
#----------   ------------   ------------------------------
 EKB .M          516.8000:   Kelly bushing
 EGL .M          518.9000:   Ground level
 EDF .M          516.5000:   Drilling floor
 EPD .M          518.9000:   Permanent datum
 TD  .M            0.0000:   Total depth
 NRUN.                  1:   Number of Runs
#--RUN 1---   ------------   The following are for Run 1---
 RUN .                  1:   Run 1
 DATE.        12-JAN-2023:   Logging Date
 TMAX.degC      105.00000:   (Borehole)      Max Recorded Temp
~Tops
SCATTER                           612.0
GARBUTT                           659.0
FANTASQUE                         696.5
MATTSON                           704.0
DEBOLT                            734.0
SHUNDER                           989.0
PEKISKO                          1109.0
BANFF                            1160.0
EXSHAW                           1690.0
KOTCHO                           1720.0
TETCHO                           1974.5
TROUT RIVER                      1986.0
KAKISA                           2051.5
FORT SIMPSON                     2101.0
MUSKWA                           2949.5
OTTER PARK                       3026.0
KLUA                             3083.5
EVIE                             3098.0
KEG RIVER                        3148.0
~A  DEPTH     DWTC      WCLAY       WCLC       WDOL       WPYR       WQFM       ECGR       HCGR        SGR       HURA       HTHO        HFK       WTOC      WCARB     WQTZ       RHGE      HCAL1      HCAL2   HD1_PPC1   HD2_PPC1      GR_ND         SP        DTP        DEN         PE       HDRA        PDS        PDL        POS        POL       SPHI       PHIZ         RS         RM         RD
# ...
 2989.0000     0.0445     0.1494     0.0000     0.0431     0.0217     0.7858   233.1771    48.0515   186.0022    18.3266     7.2518     1.3912     0.0390     0.0431     0.4129  2703.3149   201.1339   201.1785   200.0607   199.2571   208.4407 -1219.4214   238.6022  2530.2495     5.2204    -2.1169     0.0726     0.1051     0.1322     0.0878     0.1437     0.1054    27.2964    24.8586    19.4736
 2989.2000     0.0429     0.1317     0.0001     0.0394     0.0194     0.8094   211.6158    39.1263   165.4821    16.6766     5.4761     1.2060     0.0379     0.0396     0.4179  2697.1331   200.9712   200.9793   200.0311   198.6697   189.2919 -1219.5060   235.7985  2520.5024     4.9551    -2.0857     0.0785     0.1108     0.0985     0.0581     0.1380     0.0943    29.9752    26.8324    20.7177
 2989.4000     0.0411     0.1246     0.0033     0.0312     0.0189     0.8220   178.5907    32.2379   141.6617    14.4718     4.5980     0.9790     0.0367     0.0346     0.4226  2691.6399   201.3635   201.0033   200.0220   199.0800   159.7419 -1219.6249   232.2045  2527.6985     4.7316    -1.2846     0.0741     0.1066     0.0894     0.0505     0.1305     0.0847    26.1754    24.1216    19.0278
 2989.6000     0.0392     0.1258     0.0172     0.0103     0.0182     0.8286   162.8049    28.4738   130.6684    13.4624     4.0648     0.8641     0.0357     0.0275     0.4280  2685.1328   201.5937   201.0368   200.0400   199.4643   145.5368 -1220.4124   232.4695  2525.0364     4.4851    -1.8801     0.0757     0.1082     0.0822     0.0444     0.1310     0.0793    25.1019    22.0484    18.2624
 2989.8000     0.0378     0.1210     0.0239     0.0023     0.0164     0.8362   164.6116    29.8475   130.8762    13.3257     4.4767     0.8689     0.0344     0.0262     0.4299  2681.8142   200.9585   201.4142   200.0467   199.6078   147.1300 -1220.1848   231.5257  2519.2505     4.3070    -1.1351     0.0792     0.1115     0.0800     0.0426     0.1294     0.0860    23.9847    20.2923    17.1088
 2990.0000     0.0353     0.1254     0.0262     0.0008     0.0150     0.8325   165.0823    34.4208   129.8147    12.6532     5.3564     0.9689     0.0319     0.0270     0.4308  2680.1497   201.0020   200.9159   199.9031   199.4550   147.5657 -1220.5435   233.0839  2519.5752     4.3746     1.5273     0.0790     0.1114     0.0824     0.0448     0.1323     0.0936    24.2073    19.6929    17.0826
 2990.2000     0.0323     0.1508     0.0284     0.0002     0.0143     0.8064   153.2313    36.8706   122.7341    11.4533     5.8456     1.0195     0.0287     0.0286     0.4297  2680.4456   201.2015   200.0621   199.7193   199.5072   136.9667 -1220.5056   235.3885  2536.6997     4.6466    -0.1102     0.0687     0.1013     0.0791     0.0416     0.1372     0.0936    23.7580    20.2209    18.8559
 2990.4000     0.0293     0.1880     0.0323     0.0000     0.0137     0.7659   140.1481    36.4130   114.2446    10.3972     5.5364     1.0472     0.0251     0.0324     0.4247  2683.5208   201.5526   200.5171   199.7257   199.3442   125.3659 -1220.7451   237.0364  2559.2173     5.0534    -5.4101     0.0550     0.0882     0.0789     0.0407     0.1406     0.0852    20.7847    17.2797    17.0961
 2990.6000     0.0275     0.2225     0.0342     0.0065     0.0158     0.7211   133.5883    39.2043   112.5443     9.8652     5.9297     1.1328     0.0220     0.0406     0.4144  2692.6602   201.3307   201.4990   199.7187   199.0222   119.4284 -1221.2971   238.9646  2582.2622     5.3505    -5.5057     0.0411     0.0747     0.1123     0.0704     0.1445     0.0827    16.2312    14.5620    14.4963
 2990.8000     0.0271     0.2553     0.0242     0.0336     0.0223     0.6645   129.6604    41.2734   111.8980     9.5526     6.2309     1.1946     0.0203     0.0578     0.3989  2707.9612   200.9731   201.5708   199.9240   199.2506   115.8521 -1220.5304   240.0256  2600.9253     5.4587    -0.6587     0.0297     0.0638     0.1350     0.0906     0.1466     0.0822    14.5027    12.2483    11.8962
 2991.0000     0.0279     0.2665     0.0146     0.0535     0.0302     0.6351   129.7708    42.7575   115.3099     9.8180     6.3858     1.2494     0.0204     0.0681     0.3897  2720.1582   201.3131   201.0680   200.0299   199.2527   115.9996 -1221.0775   239.0559  2606.0940     5.6180     1.0334     0.0266     0.0608     0.1227     0.0783     0.1447     0.0914    12.9302    10.6610     9.7869
 2991.2000     0.0299     0.2382     0.0142     0.0476     0.0333     0.6667   150.3594    48.2443   130.6525    11.1669     7.2793     1.3970     0.0224     0.0617     0.3943  2719.8416   201.4120   201.1435   199.7066   199.4554   134.3618 -1219.5801   239.6601  2599.5269     5.8703    -2.8929     0.0306     0.0646     0.1750     0.1268     0.1459     0.1072    11.8560     9.5353     8.6639
 2991.4000     0.0328     0.2018     0.0241     0.0275     0.0305     0.7160   172.7272    53.5727   144.7970    12.4990     8.1766     1.5354     0.0261     0.0516     0.4037  2710.3489   201.4768   200.9170   199.7287   199.5956   154.3994 -1217.3646   238.8249  2597.2607     5.8385    -4.7832     0.0320     0.0659     0.1644     0.1172     0.1442     0.1017     9.9921     8.8346     8.0309
 2991.6000     0.0360     0.1707     0.0406     0.0047     0.0234     0.7606   178.9249    50.3960   146.6371    13.0935     7.3840     1.4969     0.0296     0.0453     0.4122  2697.0779   201.6440   201.6937   199.7589   199.6943   159.9965 -1220.7540   237.3903  2567.1321     5.4892    -4.7941     0.0502     0.0835     0.1308     0.0877     0.1415     0.0828     9.9625     8.9814     8.0609
 2991.8000     0.0378     0.1629     0.0470     0.0015     0.0192     0.7694   174.2615    45.0222   142.3282    13.1397     6.5242     1.3497     0.0316     0.0495     0.4138  2690.6035   201.4662   201.1509   199.9735   199.6094   155.7311 -1222.6111   237.0332  2531.8601     5.1044    -3.6531     0.0716     0.1042     0.0678     0.0310     0.1406     0.0797    11.6386    11.0657     9.6175
 2992.0000     0.0388     0.1655     0.0479     0.0065     0.0204     0.7597   170.1724    40.8447   141.0922    13.3921     5.9464     1.2197     0.0325     0.0544     0.4134  2689.6855   201.1386   201.2215   199.7480   199.6734   152.2515 -1225.2271   237.1189  2522.8665     4.9397    -1.1670     0.0771     0.1094     0.0805     0.0426     0.1407     0.0858    14.1688    13.9464    12.7160
 2992.2000     0.0398     0.1565     0.0464     0.0088     0.0251     0.7631   163.5067    35.8256   140.0072    13.9481     5.1848     1.0751     0.0332     0.0552     0.4142  2692.1531   201.5806   201.5239   199.7602   199.7222   146.2394 -1228.0140   238.1011  2519.5078     4.9746    -0.7208     0.0791     0.1114     0.0978     0.0582     0.1427     0.0885    15.3950    14.7316    14.3385
 2992.4000     0.0409     0.1389     0.0428     0.0099     0.0274     0.7812   149.7784    31.9868   129.6210    13.0458     4.8963     0.9144     0.0347     0.0525     0.4157  2694.7102   201.6588   201.3164   199.9916   199.6067   133.8452 -1228.4708   238.3052  2516.8384     5.2521     1.1384     0.0807     0.1130     0.0915     0.0525     0.1431     0.0863    13.1749    12.2877    12.8652
 2992.6000     0.0424     0.1272     0.0403     0.0076     0.0269     0.7980   157.5769    31.6055   133.3157    13.5360     4.8045     0.9092     0.0366     0.0479     0.4170  2696.1277   201.0308   201.4142   199.7150   199.7703   140.8197 -1227.3888   240.2159  2507.2473     5.6447     1.3114     0.0865     0.1186     0.0754     0.0378     0.1470     0.0890    10.7196     9.8591    10.6706
 2992.8000     0.0434     0.1300     0.0401     0.0033     0.0239     0.8028   184.2848    36.2177   154.9112    15.8892     5.3408     1.0699     0.0380     0.0434     0.4175  2695.7385   201.3528   201.6018   199.7200   199.6729   164.6531 -1226.4974   240.0850  2503.2888     5.8686    -0.3937     0.0889     0.1209     0.1018     0.0619     0.1467     0.0982     8.8434     8.0637     8.8341
 2993.0000     0.0433     0.1484     0.0377     0.0011     0.0217     0.7911   197.4969    38.2821   164.8860    16.9291     5.3989     1.1730     0.0386     0.0388     0.4185  2693.9060   201.2281   201.4555   199.9745   199.6072   176.5382 -1224.2638   240.6902  2517.1350     5.7223    -1.2758     0.0805     0.1128     0.1132     0.0717     0.1479     0.1018     7.7533     7.0771     7.7409
