~VERSION INFORMATION
 VERS.               2.10:   CWLS LOG ASCII STANDARD - VERSION 2.10
 WRAP.                 NO:   ONE LINE PER DEPTH STEP
~WELL INFORMATION
#MNEM.UNIT      DATA TYPE    INFORMATION
#----------   ------------   ------------------------------
 STRT.M         2800.0000:   Start depth
 STOP.M         3210.0000:   Stop depth
 STEP.M            0.2000:   Step length
 NULL.          -999.2500:   No value
 WELL.                   :   Well
 FLD .                   :   Field
 LOC .                   :   Location
 SRVC.                   :   Service company
 DATE.        12-JAN-2023:   logging date
 WSTA.           Location:   Well status
~CURVE INFORMATION
#MNEM.UNIT       API CODE    CURVE DESCRIPTION
#----------   ------------   ------------------------------
 DEPT.M                  :   DEPTH
 DWTC.V/V                :   Dry Weight Total Carbon (Borehole corrected) {F13.4}
 WCLAY.V/V               :   Dry Weight of Clay
 WCLC.V/V                :   Dry Weight Calcite (Inelastic Capture Closure) {F13.4}
 WDOL.V/V                :   Dry Weight Dolomite (Inelastic Capture Closure) {F13.4}
 WPYR.V/V                :   WEIGHT FRACTION PYRITE
 WQFM.V/V                :   WEIGHT FRACTION QUARTZ AND FELDSPAR AND MICA
 ECGR.GAPI               :   GAMMA-RAY {F13.5}
 HCGR.GAPI               :   (HNGS-BA) (6IN) GAMMA RAY CONTRIBUTION FROM THORIUM AND POTASSIUM
 SGR .GAPI               :   (HNGS-BA) (6IN) SPECTROSCOPY GAMMA RAY
 HURA.PPM                :   URANIUM CONCENTRATION
 HTHO.PPM                :   THORIUM CONCENTRATION
 HFK .V/V                :   POTASSIUM CONCENTRATION
 WTOC.V/V                :   Dry Weight Total Organic Carbon
 WCARB.V/V               :   Weight fraction of carbonate
 WQTZ.V/V                :   Weight fraction of quartz
 RHGE.KG/M3              :   MATRIX DENSITY FROM ELEMENTAL CONCENTRATIONS - SPECTROLITH WALK2 MODEL 
 HCAL1.MM                :   Caliper  (HDRS-H[1])  (1IN) CALIPER
 HCAL2.MM                :   Caliper  (HDRS-H[2])  (1IN) CALIPER
 HD1_PPC1.MM             :   PPC1 ELLIPSE HOLE DIAMETER 1 {F14.5}
 HD2_PPC1.MM             :   PPC1 ELLIPSE HOLE DIAMETER 2 {F14.5}
 GR_ND.GAPI  42 310 00 00:   Gamma Ray
 SP  .MV     05 010 01 00:   Spontaneous Potential
 DTP .US/M   60 520 00 00:   Compressional Wave
 DEN .KG/M3  42 350 01 00:   HRDD STANDARD RESOLUTION FORMATION DENSITY
 PE  .B/E                :   HRDD Standard Resolution Formation Photoelectric Factor [F12.3]
 HDRA.KG/M3              :   HRDD DENSITY CORRECTION
 PDS .V/V                :   DENSITY POROSITY WITH SANDSTONE CALIBRATION
 PDL .V/V                :   DENSITY POROSITY WITH LIMESTONE CALIBRATION
 POS .V/V                :   NEUTRON POROSITY WITH SANDSTONE CALIBRATION
 POL .V/V                :   NEUTRON POROSITY WITH LIMESTONE CALIBRATION
 SPHI.V/V                :   Sonic Porosity [F12.3]
 PHIZ.V/V                :   INTERGRANULAR POROSITY
 RS  .OHMM               :   ARRAY INDUCTION FOUR FOOT RESISTIVITY A20
 RM  .OHMM               :   ARRAY INDUCTION FOUR FOOT RESISTIVITY A30
 RD  .OHMM   07 120 46 00:   Deep Induction Resistivity
~PARAMETER INFORMATION
#MNEM.UNIT          VALUE    DESCRIPTION
#----------   ------------   ------------------------------
 EKB .M          516.8000:   Kelly bushing
 EGL .M          518.9000:   Ground level
 EDF .M          516.5000:   Drilling floor
 EPD .M          518.9000:   Permanent datum
 TD  .M            0.0000:   Total depth
 NRUN.                  1:   Number of Runs
#--RUN 1---   ------------   The following are for Run 1---
 RUN .                  1:   Run 1
 DATE.        12-JAN-2023:   Logging Date
 TMAX.degC      105.00000:   (Borehole)      Max Recorded Temp
~Tops
SCATTER                           612.0
GARBUTT                           659.0
FANTASQUE                         696.5
MATTSON                           704.0
DEBOLT                            734.0
SHUNDER                           989.0
PEKISKO                          1109.0
BANFF                            1160.0
EXSHAW                           1690.0
KOTCHO                           1720.0
TETCHO                           1974.5
TROUT RIVER                      1986.0
KAKISA                           2051.5
FORT SIMPSON                     2101.0
MUSKWA                           2949.5
OTTER PARK                       3026.0
KLUA                             3083.5
EVIE                             3098.0
KEG RIVER                        3148.0
~A  DEPTH     DWTC      WCLAY       WCLC       WDOL       WPYR       WQFM       ECGR       HCGR        SGR       HURA       HTHO        HFK       WTOC      WCARB     WQTZ       RHGE      HCAL1      HCAL2   HD1_PPC1   HD2_PPC1      GR_ND         SP        DTP        DEN         PE       HDRA        PDS        PDL        POS        POL       SPHI       PHIZ         RS         RM         RD
# ...
 2879.8000     0.0129     0.3952     0.0489     0.0023     0.0005     0.5531   124.5608    85.3682   106.1343     3.0984    12.0213     2.6192     0.0069     0.0512     0.3522  2750.5671   197.3920   197.8166   202.3691   201.4750   110.9689 -1181.5139   279.1713  2686.6704     4.4704     0.6114    -0.0222     0.0136     0.2531     0.2017     0.2137     0.1493     4.1626     4.0720     3.7625
 2880.0000     0.0139     0.4043     0.0381     0.0094     0.0000     0.5483   122.6229    88.9448   108.1308     2.8563    12.6436     2.7086     0.0086     0.0475     0.3548  2747.8879   196.8652   198.1224   202.8200   201.9622   109.2299 -1179.8145   280.8414  2677.3022     4.5012    -1.4467    -0.0165     0.0191     0.2665     0.2148     0.2161     0.1527     4.0624     3.9861     3.6996
 2880.2000     0.0152     0.4343     0.0332     0.0027     0.0000     0.5298   121.8980    91.2709   109.2100     2.7345    13.1848     2.7435     0.0103     0.0359     0.3598  2744.5913   197.7927   198.3927   202.8904   201.8406   108.5425 -1178.8872   281.1857  2666.8579     4.5493    -1.5976    -0.0102     0.0252     0.2651     0.2135     0.2166     0.1556     3.8797     3.8273     3.5889
 2880.4000     0.0154     0.4551     0.0342     0.0001     0.0020     0.5088   123.0120    94.4518   111.6217     2.6386    13.5822     2.8497     0.0106     0.0339     0.3593  2744.9978   197.5373   197.9093   203.0994   202.4527   109.3832 -1182.9053   283.7121  2676.5151     4.5460     2.1135    -0.0161     0.0196     0.2677     0.2161     0.2203     0.1596     3.7162     3.6719     3.4907
 2880.6000     0.0136     0.4682     0.0378     0.0000     0.0075     0.4864   125.2176    94.8021   112.3699     2.7269    13.6113     2.8639     0.0084     0.0378     0.3562  2749.0498   197.7477   197.9658   203.5566   202.3851   111.2438 -1187.4342   282.4906  2686.3989     4.6135     3.6524    -0.0221     0.0138     0.2821     0.2305     0.2185     0.1616     3.6210     3.6021     3.4857
 2880.8000     0.0096     0.4680     0.0425     0.0059     0.0123     0.4714   128.0738    93.6981   111.8602     2.8801    13.5719     2.8103     0.0027     0.0484     0.3490  2755.0569   198.7193   199.0534   203.8492   202.5414   113.8674 -1188.5385   282.3530  2682.1582     4.7286     1.6454    -0.0195     0.0163     0.2761     0.2247     0.2182     0.1594     3.5946     3.5748     3.5241
 2881.0000     0.0069     0.4588     0.0305     0.0481     0.0119     0.4507   129.0880    93.2960   111.6372     2.8615    13.5141     2.7981    -0.0037     0.0785     0.3383  2759.7141   198.7329   200.1769   203.5013   202.5371   114.5801 -1188.5585   284.1419  2676.5015     4.7151     0.1258    -0.0161     0.0196     0.2786     0.2269     0.2209     0.1581     3.5957     3.5496     3.5303
 2881.2000     0.0056     0.4381     0.0123     0.1045     0.0107     0.4343   125.1418    93.3826   111.5572     2.8395    13.4428     2.8151    -0.0083     0.1168     0.3290  2764.5894   198.4257   198.6979   203.9074   202.7807   111.1007 -1188.8885   284.3492  2679.1335     4.6134     1.3423    -0.0177     0.0181     0.2714     0.2199     0.2212     0.1599     3.5712     3.5354     3.5242
 2881.4000     0.0061     0.4032     0.0074     0.1308     0.0100     0.4484   122.3467    93.6610   110.0725     2.6285    13.5440     2.8131    -0.0105     0.1385     0.3226  2767.6765   198.4277   198.2022   204.2477   203.2052   108.5747 -1189.1649   286.7004  2684.6125     4.5293     1.2124    -0.0210     0.0148     0.2668     0.2154     0.2245     0.1599     3.5587     3.4671     3.4587
 2881.6000     0.0080     0.3796     0.0118     0.1277     0.0098     0.4709   122.5414    91.4313   107.9346     2.6971    13.1888     2.7517    -0.0089     0.1405     0.3208  2768.2817   200.4197   199.0420   204.1273   203.7525   108.6101 -1189.1008   290.1482  2682.2410     4.5608     0.5619    -0.0195     0.0162     0.2824     0.2307     0.2292     0.1595     3.5877     3.4625     3.4739
 2881.8000     0.0102     0.3699     0.0197     0.1061     0.0107     0.4936   124.1530    89.7801   107.3107     2.7870    12.9152     2.7080    -0.0049     0.1258     0.3236  2766.5430   200.1811   200.4533   205.4946   204.7589   109.8705 -1190.1560   287.3071  2670.5056     4.6934    -0.4026    -0.0124     0.0231     0.2750     0.2235     0.2253     0.1604     3.7398     3.5613     3.5739
 2882.0000     0.0130     0.3929     0.0320     0.0601     0.0128     0.5022   123.5088    89.6906   107.8649     2.8372    13.0645     2.6776     0.0002     0.0921     0.3336  2761.5217   200.3231   200.4120   205.8621   204.4112   109.3066 -1190.9877   284.2404  2670.8833     4.9187     0.7353    -0.0127     0.0229     0.2849     0.2335     0.2210     0.1627     3.8518     3.6875     3.7359
 2882.2000     0.0155     0.4338     0.0395     0.0307     0.0134     0.4826   119.2513    89.4035   106.6733     2.8070    13.2061     2.6377     0.0063     0.0701     0.3420  2756.5269   195.3478   199.7234   205.1586   204.3913   105.6124 -1190.2776   283.4449  2680.3901     5.0909    -1.2110    -0.0184     0.0173     0.2784     0.2268     0.2199     0.1600     3.9990     3.8648     3.9077
 2882.4000     0.0185     0.4868     0.0463     0.0033     0.0132     0.4503   117.0804    86.2038   103.4082     2.7368    12.8228     2.5281     0.0118     0.0496     0.3525  2749.3594   195.5758   196.5321   201.6700   201.0386   104.5222 -1191.5725   281.2642  2692.0071     4.9714    -0.9824    -0.0255     0.0105     0.2694     0.2177     0.2167     0.1542     4.0990     4.0269     4.0558
 2882.6000     0.0216     0.5209     0.0383     0.0000     0.0104     0.4304   122.1780    86.3913   101.4587     2.4436    12.9725     2.5127     0.0167     0.0383     0.3608  2743.4180   196.6836   196.5456   200.8216   199.9163   109.1362 -1194.7871   280.3546  2691.7000     4.7621     0.0068    -0.0253     0.0107     0.2629     0.2115     0.2154     0.1523     4.1547     4.1446     4.1436
 2882.8000     0.0225     0.5310     0.0294     0.0008     0.0053     0.4338   128.2757    91.6401   104.3005     2.2363    14.1969     2.5909     0.0184     0.0302     0.3637  2740.4951   196.7946   196.7222   200.0932   199.7374   114.1156 -1196.2324   278.5131  2688.8044     4.7422    -0.0645    -0.0235     0.0124     0.2854     0.2340     0.2127     0.1579     4.1056     4.1452     4.0906
 2883.0000     0.0203     0.5200     0.0188     0.0107     0.0012     0.4494   124.5454    94.3392   108.0801     2.4443    14.7449     2.6450     0.0169     0.0295     0.3656  2741.4661   196.8136   198.1017   201.9699   201.3032   110.5919 -1194.2813   277.5932  2694.3896     4.8294     1.3724    -0.0269     0.0091     0.2814     0.2301     0.2113     0.1617     3.9355     3.9760     3.9154
 2883.2000     0.0176     0.5122     0.0063     0.0185     0.0016     0.4614   121.0932    93.5462   108.6293     2.6214    14.6667     2.6149     0.0147     0.0248     0.3700  2744.3872   198.2767   198.3565   203.8676   202.8909   107.4573 -1190.8691   278.5410  2686.6602     4.8832    -2.5664    -0.0222     0.0137     0.2841     0.2327     0.2127     0.1631     3.7873     3.8099     3.7707
 2883.4000     0.0156     0.5223     0.0019     0.0147     0.0066     0.4545   124.2163    94.2174   109.3426     2.6113    14.7561     2.6364     0.0134     0.0166     0.3725  2747.5518   197.0066   197.6776   203.5463   203.2152   110.2708 -1190.1663   281.1129  2665.0078     4.9940   -16.8773    -0.0091     0.0263     0.2773     0.2258     0.2164     0.1609     3.6628     3.6727     3.5603
 2883.6000     0.0127     0.5134     0.0085     0.0021     0.0086     0.4674   126.3299    93.0907   109.7977     2.8341    14.2178     2.6667     0.0108     0.0102     0.3720  2747.8823   196.6086   198.9376   203.7892   202.9592   112.2060 -1188.8987   282.3407  2663.3237     5.0692   -20.0769    -0.0081     0.0273     0.2794     0.2279     0.2183     0.1605     3.6454     3.6395     3.4935
 2883.8000     0.0107     0.4782     0.0145     0.0000     0.0066     0.5006   128.1472    93.2209   111.2306     3.0017    14.0578     2.7011     0.0084     0.0145     0.3687  2745.5093   196.7484   199.2034   203.5365   202.7835   114.0473 -1188.6656   282.2133  2668.6958     4.9517    -8.9981    -0.0113     0.0242     0.2722     0.2205     0.2181     0.1569     3.6222     3.6075     3.4447
