~VERSION INFORMATION
 VERS.               2.10:   CWLS LOG ASCII STANDARD - VERSION 2.10
 WRAP.                 NO:   ONE LINE PER DEPTH STEP
~WELL INFORMATION
#MNEM.UNIT      DATA TYPE    INFORMATION
#----------   ------------   ------------------------------
 STRT.M         2800.0000:   Start depth
 STOP.M         3210.0000:   Stop depth
 STEP.M            0.2000:   Step length
 NULL.          -999.2500:   No value
 WELL.                   :   Well
 FLD .                   :   Field
 LOC .                   :   Location
 SRVC.                   :   Service company
 DATE.        12-JAN-2023:   logging date
 WSTA.           Location:   Well status
~CURVE INFORMATION
#MNEM.UNIT       API CODE    CURVE DESCRIPTION
#----------   ------------   ------------------------------
 DEPT.M                  :   DEPTH
 DWTC.V/V                :   Dry Weight Total Carbon (Borehole corrected) {F13.4}
 WCLAY.V/V               :   Dry Weight of Clay
 WCLC.V/V                :   Dry Weight Calcite (Inelastic Capture Closure) {F13.4}
 WDOL.V/V                :   Dry Weight Dolomite (Inelastic Capture Closure) {F13.4}
 WPYR.V/V                :   WEIGHT FRACTION PYRITE
 WQFM.V/V                :   WEIGHT FRACTION QUARTZ AND FELDSPAR AND MICA
 ECGR.GAPI               :   GAMMA-RAY {F13.5}
 HCGR.GAPI               :   (HNGS-BA) (6IN) GAMMA RAY CONTRIBUTION FROM THORIUM AND POTASSIUM
 SGR .GAPI               :   (HNGS-BA) (6IN) SPECTROSCOPY GAMMA RAY
 HURA.PPM                :   URANIUM CONCENTRATION
 HTHO.PPM                :   THORIUM CONCENTRATION
 HFK .V/V                :   POTASSIUM CONCENTRATION
 WTOC.V/V                :   Dry Weight Total Organic Carbon
 WCARB.V/V               :   Weight fraction of carbonate
 WQTZ.V/V                :   Weight fraction of quartz
 RHGE.KG/M3              :   MATRIX DENSITY FROM ELEMENTAL CONCENTRATIONS - SPECTROLITH WALK2 MODEL 
 HCAL1.MM                :   Caliper  (HDRS-H[1])  (1IN) CALIPER
 HCAL2.MM                :   Caliper  (HDRS-H[2])  (1IN) CALIPER
 HD1_PPC1.MM             :   PPC1 ELLIPSE HOLE DIAMETER 1 {F14.5}
 HD2_PPC1.MM             :   PPC1 ELLIPSE HOLE DIAMETER 2 {F14.5}
 GR_ND.GAPI  42 310 00 00:   Gamma Ray
 SP  .MV     05 010 01 00:   Spontaneous Potential
 DTP .US/M   60 520 00 00:   Compressional Wave
 DEN .KG/M3  42 350 01 00:   HRDD STANDARD RESOLUTION FORMATION DENSITY
 PE  .B/E                :   HRDD Standard Resolution Formation Photoelectric Factor [F12.3]
 HDRA.KG/M3              :   HRDD DENSITY CORRECTION
 PDS .V/V                :   DENSITY POROSITY WITH SANDSTONE CALIBRATION
 PDL .V/V                :   DENSITY POROSITY WITH LIMESTONE CALIBRATION
 POS .V/V                :   NEUTRON POROSITY WITH SANDSTONE CALIBRATION
 POL .V/V                :   NEUTRON POROSITY WITH LIMESTONE CALIBRATION
 SPHI.V/V                :   Sonic Porosity [F12.3]
 PHIZ.V/V                :   INTERGRANULAR POROSITY
 RS  .OHMM               :   ARRAY INDUCTION FOUR FOOT RESISTIVITY A20
 RM  .OHMM               :   ARRAY INDUCTION FOUR FOOT RESISTIVITY A30
 RD  .OHMM   07 120 46 00:   Deep Induction Resistivity
~PARAMETER INFORMATION
#MNEM.UNIT          VALUE    DESCRIPTION
#----------   ------------   ------------------------------
 EKB .M          516.8000:   Kelly bushing
 EGL .M          518.9000:   Ground level
 EDF .M          516.5000:   Drilling floor
 EPD .M          518.9000:   Permanent datum
 TD  .M            0.0000:   Total depth
 NRUN.                  1:   Number of Runs
#--RUN 1---   ------------   The following are for Run 1---
 RUN .                  1:   Run 1
 DATE.        12-JAN-2023:   Logging Date
 TMAX.degC      105.00000:   (Borehole)      Max Recorded Temp
~Tops
SCATTER                           612.0
GARBUTT                           659.0
FANTASQUE                         696.5
MATTSON                           704.0
DEBOLT                            734.0
SHUNDER                           989.0
PEKISKO                          1109.0
BANFF                            1160.0
EXSHAW                           1690.0
KOTCHO                           1720.0
TETCHO                           1974.5
TROUT RIVER                      1986.0
KAKISA                           2051.5
FORT SIMPSON                     2101.0
MUSKWA                           2949.5
OTTER PARK                       3026.0
KLUA                             3083.5
EVIE                             3098.0
KEG RIVER                        3148.0
~A  DEPTH     DWTC      WCLAY       WCLC       WDOL       WPYR       WQFM       ECGR       HCGR        SGR       HURA       HTHO        HFK       WTOC      WCARB     WQTZ       RHGE      HCAL1      HCAL2   HD1_PPC1   HD2_PPC1      GR_ND         SP        DTP        DEN         PE       HDRA        PDS        PDL        POS        POL       SPHI       PHIZ         RS         RM         RD
# ...
 3207.4000  -999.2500  -999.2500  -999.2500  -999.2500  -999.2500  -999.2500    31.2432     6.5545    21.6313     2.0123     0.8719     0.2097    -0.0011     0.9910  -999.2500  -999.2500   201.7930  -999.2500  -999.2500  -999.2500    27.8653 -1476.8267  -999.2500  2724.8481     5.8043     8.6267    -0.0454    -0.0087     0.0071    -0.0154  -999.2500  -999.2500  1950.0000  1950.0000  1950.0000
 3207.6000  -999.2500  -999.2500  -999.2500  -999.2500  -999.2500  -999.2500    29.5841     5.9732    20.8541     1.9829     0.8043     0.1894    -0.0004     0.9910  -999.2500  -999.2500   202.6651  -999.2500  -999.2500  -999.2500    26.3751 -1472.6931  -999.2500  2735.1577     5.7234    12.6683    -0.0516    -0.0147     0.0096    -0.0131  -999.2500  -999.2500  1950.0000  1950.0000  1950.0000
 3207.8000  -999.2500  -999.2500  -999.2500  -999.2500  -999.2500  -999.2500    31.4193     5.7099    20.5698     1.9707     0.7259     0.1884    -0.0017     0.9910  -999.2500  -999.2500   203.9151  -999.2500  -999.2500  -999.2500    27.9913 -1465.9093  -999.2500  2743.7676     5.5398    10.4255    -0.0568    -0.0197     0.0078    -0.0146  -999.2500  -999.2500  1950.0000  1950.0000  1950.0000
 3208.0000  -999.2500  -999.2500  -999.2500  -999.2500  -999.2500  -999.2500    35.0826     5.7393    20.1819     1.9168     0.7123     0.1923    -0.0102     0.9910  -999.2500  -999.2500   203.9255  -999.2500  -999.2500  -999.2500    31.2525 -1460.6052  -999.2500  2749.1997     5.1855     2.5126    -0.0601    -0.0229     0.0073    -0.0151  -999.2500  -999.2500  1950.0000  1950.0000  1950.0000
 3208.2000  -999.2500  -999.2500  -999.2500  -999.2500  -999.2500  -999.2500    32.4426     6.1189    20.3915     1.9076     0.8000     0.1981    -0.0143     0.9910  -999.2500  -999.2500   204.2858  -999.2500  -999.2500  -999.2500    28.9010 -1460.3195  -999.2500  2762.1045     4.7388     0.0410    -0.0679    -0.0305     0.0093    -0.0135  -999.2500  -999.2500  1950.0000  1950.0000  1950.0000
 3208.4000  -999.2500  -999.2500  -999.2500  -999.2500  -999.2500  -999.2500    27.5406     6.5240    20.6404     1.8631     0.8354     0.2142    -0.0251     0.9910  -999.2500  -999.2500   202.2960  -999.2500  -999.2500  -999.2500    24.5324 -1461.1630  -999.2500  2759.2483     4.4714    -1.5634    -0.0662    -0.0288     0.0116    -0.0118  -999.2500  -999.2500  1950.0000  1950.0000  1950.0000
 3208.6000  -999.2500  -999.2500  -999.2500  -999.2500  -999.2500  -999.2500    21.8764     7.0143    21.1773     1.8674     0.9463     0.2221    -0.0164     0.9910  -999.2500  -999.2500   202.0523  -999.2500  -999.2500  -999.2500    19.4866 -1464.0313  -999.2500  2750.5764     4.4695    -1.9015    -0.0610    -0.0237     0.0131    -0.0105  -999.2500  -999.2500  1950.0000  1950.0000  1950.0000
 3208.8000  -999.2500  -999.2500  -999.2500  -999.2500  -999.2500  -999.2500    20.1716     7.4705    21.3748     1.8547     1.0433     0.2305     0.0052     0.9910  -999.2500  -999.2500   202.3371  -999.2500  -999.2500  -999.2500    17.9692 -1468.5020  -999.2500  2759.3328     4.6492     3.8799    -0.0663    -0.0289     0.0128    -0.0110  -999.2500  -999.2500  1950.0000  1949.3322  1947.8822
 3209.0000  -999.2500  -999.2500  -999.2500  -999.2500  -999.2500  -999.2500    19.1963     7.9201    21.7094     1.8508     1.1098     0.2437     0.0188     0.9910  -999.2500  -999.2500   202.2270  -999.2500  -999.2500  -999.2500    17.1009 -1470.6143  -999.2500  2752.0012     4.9262     7.6070    -0.0618    -0.0246     0.0122    -0.0119  -999.2500  -999.2500  1950.0000  1912.6860  1891.9366
 3209.2000  -999.2500  -999.2500  -999.2500  -999.2500  -999.2500  -999.2500    19.0207     7.9219    21.7921     1.8669     1.1099     0.2438     0.0419     0.9910  -999.2500  -999.2500   202.9365  -999.2500  -999.2500  -999.2500    16.9435 -1470.6252  -999.2500  2744.2202     5.2253    13.1667    -0.0571    -0.0200     0.0160    -0.0085  -999.2500  -999.2500  1950.0000  1782.3639  1727.7051
 3209.4000  -999.2500  -999.2500  -999.2500  -999.2500  -999.2500  -999.2500    19.5041     7.5944    20.4582     1.7473     1.0266     0.2401     0.0133     0.9910  -999.2500  -999.2500   207.3868  -999.2500  -999.2500  -999.2500    17.3744 -1471.2275  -999.2500  2765.8276     5.3336    21.2608    -0.0702    -0.0326     0.0231    -0.0021  -999.2500  -999.2500  1950.0000  1589.4645  1492.5405
 3209.6000  -999.2500  -999.2500  -999.2500  -999.2500  -999.2500  -999.2500    20.7722     7.5581    19.7198     1.6616     1.0703     0.2307     0.0054     0.9910  -999.2500  -999.2500   210.1472  -999.2500  -999.2500  -999.2500    18.5043 -1470.0201  -999.2500  2818.2124     4.9869    25.7533    -0.1019    -0.0633     0.0265    -0.0003  -999.2500  -999.2500  1950.0000  1392.6829  1270.3093
 3209.8000  -999.2500  -999.2500  -999.2500  -999.2500  -999.2500  -999.2500    23.0974     7.7608    20.0343     1.6889     1.1392     0.2300    -0.0023     0.9910  -999.2500  -999.2500   203.3390  -999.2500  -999.2500  -999.2500    20.5763 -1467.2635  -999.2500  2821.2395     4.5600    17.1256    -0.1038    -0.0651     0.0324     0.0042  -999.2500  -999.2500  1950.0000  1252.8452  1131.0332
 3210.0000  -999.2500  -999.2500  -999.2500  -999.2500  -999.2500  -999.2500    22.8704     7.2653    20.2377     1.8067     1.0982     0.2099    -0.0093     0.9910  -999.2500  -999.2500   202.0085  -999.2500  -999.2500  -999.2500    20.3739 -1467.0950  -999.2500  2797.8899     4.3597     8.4634    -0.0896    -0.0514     0.0346     0.0066  -999.2500  -999.2500  1950.0000  1194.6097  1098.8593
