~VERSION INFORMATION
 VERS.               2.10:   CWLS LOG ASCII STANDARD - VERSION 2.10
 WRAP.                 NO:   ONE LINE PER DEPTH STEP
~WELL INFORMATION
#MNEM.UNIT      DATA TYPE    INFORMATION
#----------   ------------   ------------------------------
 STRT.M         2800.0000:   Start depth
 STOP.M         3210.0000:   Stop depth
 STEP.M            0.2000:   Step length
 NULL.          -999.2500:   No value
 WELL.                   :   Well
 FLD .                   :   Field
 LOC .                   :   Location
 SRVC.                   :   Service company
 DATE.        12-JAN-2023:   logging date
 WSTA.           Location:   Well status
~CURVE INFORMATION
#MNEM.UNIT       API CODE    CURVE DESCRIPTION
#----------   ------------   ------------------------------
 DEPT.M                  :   DEPTH
 DWTC.V/V                :   Dry Weight Total Carbon (Borehole corrected) {F13.4}
 WCLAY.V/V               :   Dry Weight of Clay
 WCLC.V/V                :   Dry Weight Calcite (Inelastic Capture Closure) {F13.4}
 WDOL.V/V                :   Dry Weight Dolomite (Inelastic Capture Closure) {F13.4}
 WPYR.V/V                :   WEIGHT FRACTION PYRITE
 WQFM.V/V                :   WEIGHT FRACTION QUARTZ AND FELDSPAR AND MICA
 ECGR.GAPI               :   GAMMA-RAY {F13.5}
 HCGR.GAPI               :   (HNGS-BA) (6IN) GAMMA RAY CONTRIBUTION FROM THORIUM AND POTASSIUM
 SGR .GAPI               :   (HNGS-BA) (6IN) SPECTROSCOPY GAMMA RAY
 HURA.PPM                :   URANIUM CONCENTRATION
 HTHO.PPM                :   THORIUM CONCENTRATION
 HFK .V/V                :   POTASSIUM CONCENTRATION
 WTOC.V/V                :   Dry Weight Total Organic Carbon
 WCARB.V/V               :   Weight fraction of carbonate
 WQTZ.V/V                :   Weight fraction of quartz
 RHGE.KG/M3              :   MATRIX DENSITY FROM ELEMENTAL CONCENTRATIONS - SPECTROLITH WALK2 MODEL 
 HCAL1.MM                :   Caliper  (HDRS-H[1])  (1IN) CALIPER
 HCAL2.MM                :   Caliper  (HDRS-H[2])  (1IN) CALIPER
 HD1_PPC1.MM             :   PPC1 ELLIPSE HOLE DIAMETER 1 {F14.5}
 HD2_PPC1.MM             :   PPC1 ELLIPSE HOLE DIAMETER 2 {F14.5}
 GR_ND.GAPI  42 310 00 00:   Gamma Ray
 SP  .MV     05 010 01 00:   Spontaneous Potential
 DTP .US/M   60 520 00 00:   Compressional Wave
 DEN .KG/M3  42 350 01 00:   HRDD STANDARD RESOLUTION FORMATION DENSITY
 PE  .B/E                :   HRDD Standard Resolution Formation Photoelectric Factor [F12.3]
 HDRA.KG/M3              :   HRDD DENSITY CORRECTION
 PDS .V/V                :   DENSITY POROSITY WITH SANDSTONE CALIBRATION
 PDL .V/V                :   DENSITY POROSITY WITH LIMESTONE CALIBRATION
 POS .V/V                :   NEUTRON POROSITY WITH SANDSTONE CALIBRATION
 POL .V/V                :   NEUTRON POROSITY WITH LIMESTONE CALIBRATION
 SPHI.V/V                :   Sonic Porosity [F12.3]
 PHIZ.V/V                :   INTERGRANULAR POROSITY
 RS  .OHMM               :   ARRAY INDUCTION FOUR FOOT RESISTIVITY A20
 RM  .OHMM               :   ARRAY INDUCTION FOUR FOOT RESISTIVITY A30
 RD  .OHMM   07 120 46 00:   Deep Induction Resistivity
~PARAMETER INFORMATION
#MNEM.UNIT          VALUE    DESCRIPTION
#----------   ------------   ------------------------------
 EKB .M          516.8000:   Kelly bushing
 EGL .M          518.9000:   Ground level
 EDF .M          516.5000:   Drilling floor
 EPD .M          518.9000:   Permanent datum
 TD  .M            0.0000:   Total depth
 NRUN.                  1:   Number of Runs
#--RUN 1---   ------------   The following are for Run 1---
 RUN .                  1:   Run 1
 DATE.        12-JAN-2023:   Logging Date
 TMAX.degC      105.00000:   (Borehole)      Max Recorded Temp
~Tops
SCATTER                           612.0
GARBUTT                           659.0
FANTASQUE                         696.5
MATTSON                           704.0
DEBOLT                            734.0
SHUNDER                           989.0
PEKISKO                          1109.0
BANFF                            1160.0
EXSHAW                           1690.0
KOTCHO                           1720.0
TETCHO                           1974.5
TROUT RIVER                      1986.0
KAKISA                           2051.5
FORT SIMPSON                     2101.0
MUSKWA                           2949.5
OTTER PARK                       3026.0
KLUA                             3083.5
EVIE                             3098.0
KEG RIVER                        3148.0
~A  DEPTH     DWTC      WCLAY       WCLC       WDOL       WPYR       WQFM       ECGR       HCGR        SGR       HURA       HTHO        HFK       WTOC      WCARB     WQTZ       RHGE      HCAL1      HCAL2   HD1_PPC1   HD2_PPC1      GR_ND         SP        DTP        DEN         PE       HDRA        PDS        PDL        POS        POL       SPHI       PHIZ         RS         RM         RD
# ...
 3182.2000     0.1175     0.0000     0.9293     0.0331     0.0000     0.0377    27.2667     6.3627    19.6829     1.6554     0.9063     0.1933     0.0016     0.9623     0.0176  2712.1042   201.3653   201.6665   200.2076   200.1093    24.2998 -1348.3813   158.6676  2704.9109     5.3200     3.6835    -0.0333     0.0030     0.0043    -0.0176    -0.0987     0.0014  1950.0000  1950.0000  1950.0000
 3182.4000     0.1194     0.0000     0.9385     0.0257     0.0000     0.0358    29.0462     6.7436    20.3789     1.6586     0.9608     0.2048     0.0031     0.9642     0.0167  2711.3062   202.2904   201.0930   200.6385   199.9713    25.8644 -1341.8269   158.5019  2702.3293     5.3258     2.5286    -0.0317     0.0045     0.0056    -0.0164    -0.0994     0.0009  1950.0000  1950.0000  1950.0000
 3182.6000     0.1206     0.0000     0.9664     0.0037     0.0000     0.0299    29.6006     6.7483    21.1370     1.7451     1.0352     0.1924     0.0038     0.9701     0.0140  2708.6799   202.3763   201.1890   200.0513   200.2552    26.3530 -1344.5247   158.5906  2712.7913     5.3614     2.8177    -0.0381    -0.0016     0.0067    -0.0154    -0.0991     0.0007  1950.0000  1950.0000  1950.0000
 3182.8000     0.1211     0.0000     0.9796     0.0000     0.0000     0.0204    29.2353     6.2807    20.5542     1.7547     1.0019     0.1725     0.0036     0.9796     0.0096  2708.6956   202.3497   201.1602   200.0324   200.3272    26.0615 -1350.8600   158.8282  2720.5330     5.3897     1.8050    -0.0427    -0.0062     0.0068    -0.0153    -0.0980     0.0002  1950.0000  1950.0000  1950.0000
 3183.0000     0.1208     0.0000     0.9885     0.0000     0.0000     0.0115    28.9414     6.2782    19.7338     1.6692     1.0528     0.1636     0.0028     0.9885     0.0053  2709.2717   202.0475   201.2397   200.0421   200.3730    25.8452 -1353.7274   158.5687  2719.7043     5.3759     2.0119    -0.0422    -0.0057     0.0073    -0.0149    -0.0992     0.0002  1950.0000  1950.0000  1950.0000
 3183.2000     0.1193     0.0000     0.9890     0.0001     0.0000     0.0110    29.5457     5.9588    18.9369     1.6436     1.0259     0.1508     0.0012     0.9890     0.0049  2709.3367   202.0561   201.2635   200.0296   200.6135    26.3815 -1352.4688   158.1941  2717.4043     5.3178     4.3637    -0.0409    -0.0043     0.0044    -0.0175    -0.1009     0.0003  1950.0000  1950.0000  1950.0000
 3183.4000     0.1168     0.0000     0.9764     0.0050     0.0000     0.0186    26.7579     6.2558    19.0233     1.6073     1.0528     0.1624    -0.0011     0.9813     0.0085  2709.5483   201.9251   201.0606   200.0378   200.1519    23.8838 -1352.7347   158.4158  2712.8850     5.2515     3.9023    -0.0381    -0.0017     0.0065    -0.0156    -0.0999     0.0005  1950.0000  1950.0000  1950.0000
 3183.6000     0.1133     0.0000     0.9295     0.0449     0.0000     0.0256    24.0281     6.7099    18.7353     1.5366     1.1583     0.1692    -0.0037     0.9744     0.0118  2714.4202   201.6348   201.7810   200.5273   200.2286    21.4299 -1353.6899   158.3439  2708.3394     5.2724     2.3049    -0.0354     0.0010     0.0073    -0.0149    -0.1002     0.0016  1950.0000  1950.0000  1950.0000
 3183.8000     0.1112     0.0000     0.9016     0.0703     0.0000     0.0280    24.4766     6.6939    18.1555     1.4666     1.1283     0.1735    -0.0062     0.9719     0.0131  2717.6333   201.3518   201.7768   200.6894   200.4228    21.8275 -1352.2288   158.9163  2713.2766     5.3255     2.9038    -0.0383    -0.0019     0.0099    -0.0127    -0.0976     0.0017  1950.0000  1950.0000  1950.0000
 3184.0000     0.1096     0.0000     0.8820     0.0875     0.0000     0.0305    24.5246     6.0672    15.9292     1.2428     1.0468     0.1531    -0.0076     0.9695     0.0140  2720.1221   201.6878   202.0804   200.2297   200.4444    21.8671 -1349.0020   159.0558  2717.3628     5.2555     2.6078    -0.0408    -0.0043     0.0066    -0.0158    -0.0969     0.0013  1950.0000  1950.0000  1950.0000
 3184.2000     0.1099     0.0000     0.8738     0.0935     0.0000     0.0327    24.7958     5.6206    14.7431     1.1486     1.0065     0.1356    -0.0071     0.9673     0.0140  2721.8105   201.3856   201.9529   200.2594   200.4125    22.1029 -1345.8910   159.0739  2714.1453     5.1569     1.4572    -0.0389    -0.0024     0.0084    -0.0142    -0.0969     0.0010  1950.0000  1950.0000  1950.0000
 3184.4000     0.1124     0.0000     0.8744     0.0904     0.0000     0.0352    24.0431     6.3214    15.8229     1.1797     1.1506     0.1493    -0.0044     0.9648     0.0138  2722.2368   201.6621   202.1184   200.6567   200.3266    21.4298 -1344.3444   158.6338  2716.6167     5.0560     1.3029    -0.0404    -0.0039     0.0106    -0.0121    -0.0989     0.0011  1950.0000  1950.0000  1950.0000
 3184.6000     0.1166     0.0000     0.8739     0.0900     0.0000     0.0361    22.8327     6.1373    15.1871     1.0640     1.0094     0.1633    -0.0001     0.9639     0.0138  2722.3464   201.5871   202.0487   200.4660   200.4473    20.3451 -1347.0605   158.4634  2722.3611     4.9180     0.8368    -0.0439    -0.0072     0.0066    -0.0156    -0.0996     0.0010  1950.0000  1950.0000  1950.0000
 3184.8000     0.1206     0.0000     0.8619     0.1019     0.0000     0.0363    23.7102     6.3405    15.5203     1.0637     0.9906     0.1777     0.0041     0.9637     0.0140  2723.6960   201.7256   201.4655   200.2713   200.2703    21.1250 -1349.4153   158.2889  2730.7627     4.8038     0.9244    -0.0489    -0.0121     0.0064    -0.0160    -0.1004     0.0003  1950.0000  1950.0000  1950.0000
 3185.0000     0.1246     0.0003     0.8410     0.1207     0.0000     0.0380    28.9230     7.5468    17.8187     1.2114     1.1729     0.2125     0.0082     0.9617     0.0156  2725.4846   202.0019   201.1668   200.0630   200.3188    25.7698 -1351.1746   157.9280  2732.6824     4.8024     1.6978    -0.0501    -0.0133     0.0087    -0.0139    -0.1020     0.0006  1950.0000  1950.0000  1950.0000
 3185.2000     0.1272     0.0098     0.8336     0.1215     0.0000     0.0351    33.5849     8.8381    22.2444     1.6005     1.3990     0.2445     0.0115     0.9551     0.0190  2724.4583   202.4682   201.4017   200.0429   200.4081    29.9385 -1352.5289   157.7602  2725.0371     4.9456     2.3209    -0.0455    -0.0088     0.0084    -0.0141    -0.1029     0.0005  1950.0000  1950.0000  1950.0000
 3185.4000     0.1287     0.0283     0.8300     0.1167     0.0000     0.0246    33.2130     8.9479    23.6006     1.7785     1.3836     0.2532     0.0134     0.9468     0.0225  2723.4653   201.9380   201.4643   200.0267   200.8776    29.6499 -1352.8224   157.4562  2725.9053     5.1518     5.6485    -0.0460    -0.0093     0.0065    -0.0159    -0.1043     0.0013  1950.0000  1950.0000  1950.0000
 3185.6000     0.1287     0.0304     0.8388     0.1094     0.0000     0.0182    29.4877     7.3908    20.6616     1.6755     1.1843     0.2020     0.0133     0.9482     0.0209  2723.2236   201.7511   201.6234   200.0423   200.3930    26.3297 -1349.5570   157.3804  2736.3994     5.2885     8.9128    -0.0524    -0.0154     0.0080    -0.0146    -0.1046     0.0022  1950.0000  1950.0000  1950.0000
 3185.8000     0.1263     0.0149     0.8572     0.0999     0.0000     0.0206    25.2505     6.7059    18.3592     1.4879     0.9693     0.2013     0.0101     0.9574     0.0164  2722.7129   202.0076   201.6261   200.3703   199.9551    22.5011 -1344.2073   158.1456  2735.3091     5.3029     8.0075    -0.0517    -0.0148     0.0114    -0.0115    -0.1011     0.0013  1950.0000  1950.0000  1950.0000
 3186.0000     0.1218     0.0015     0.8577     0.1100     0.0001     0.0238    25.5311     6.4790    17.1779     1.3817     0.8593     0.2077     0.0046     0.9677     0.0126  2724.3506   202.0665   201.9555   200.5268   199.9848    22.7421 -1340.9551   157.9675  2730.1560     5.2519     3.1574    -0.0486    -0.0118     0.0105    -0.0126    -0.1019     0.0014  1950.0000  1950.0000  1950.0000
 3186.2000     0.1159     0.0000     0.8139     0.1593     0.0007     0.0251    26.4408     6.6333    16.3848     1.2870     0.8781     0.2129    -0.0017     0.9732     0.0118  2730.8850   202.3600   201.8702   200.6852   200.2605    23.5574 -1338.8267   157.8732  2740.2996     5.0857     1.8592    -0.0547    -0.0177     0.0141    -0.0099    -0.1024     0.0017  1950.0000  1950.0000  1950.0000
