~VERSION INFORMATION
 VERS.               2.10:   CWLS LOG ASCII STANDARD - VERSION 2.10
 WRAP.                 NO:   ONE LINE PER DEPTH STEP
~WELL INFORMATION
#MNEM.UNIT      DATA TYPE    INFORMATION
#----------   ------------   ------------------------------
 STRT.M         2800.0000:   Start depth
 STOP.M         3210.0000:   Stop depth
 STEP.M            0.2000:   Step length
 NULL.          -999.2500:   No value
 WELL.                   :   Well
 FLD .                   :   Field
 LOC .                   :   Location
 SRVC.                   :   Service company
 DATE.        12-JAN-2023:   logging date
 WSTA.           Location:   Well status
~CURVE INFORMATION
#MNEM.UNIT       API CODE    CURVE DESCRIPTION
#----------   ------------   ------------------------------
 DEPT.M                  :   DEPTH
 DWTC.V/V                :   Dry Weight Total Carbon (Borehole corrected) {F13.4}
 WCLAY.V/V               :   Dry Weight of Clay
 WCLC.V/V                :   Dry Weight Calcite (Inelastic Capture Closure) {F13.4}
 WDOL.V/V                :   Dry Weight Dolomite (Inelastic Capture Closure) {F13.4}
 WPYR.V/V                :   WEIGHT FRACTION PYRITE
 WQFM.V/V                :   WEIGHT FRACTION QUARTZ AND FELDSPAR AND MICA
 ECGR.GAPI               :   GAMMA-RAY {F13.5}
 HCGR.GAPI               :   (HNGS-BA) (6IN) GAMMA RAY CONTRIBUTION FROM THORIUM AND POTASSIUM
 SGR .GAPI               :   (HNGS-BA) (6IN) SPECTROSCOPY GAMMA RAY
 HURA.PPM                :   URANIUM CONCENTRATION
 HTHO.PPM                :   THORIUM CONCENTRATION
 HFK .V/V                :   POTASSIUM CONCENTRATION
 WTOC.V/V                :   Dry Weight Total Organic Carbon
 WCARB.V/V               :   Weight fraction of carbonate
 WQTZ.V/V                :   Weight fraction of quartz
 RHGE.KG/M3              :   MATRIX DENSITY FROM ELEMENTAL CONCENTRATIONS - SPECTROLITH WALK2 MODEL 
 HCAL1.MM                :   Caliper  (HDRS-H[1])  (1IN) CALIPER
 HCAL2.MM                :   Caliper  (HDRS-H[2])  (1IN) CALIPER
 HD1_PPC1.MM             :   PPC1 ELLIPSE HOLE DIAMETER 1 {F14.5}
 HD2_PPC1.MM             :   PPC1 ELLIPSE HOLE DIAMETER 2 {F14.5}
 GR_ND.GAPI  42 310 00 00:   Gamma Ray
 SP  .MV     05 010 01 00:   Spontaneous Potential
 DTP .US/M   60 520 00 00:   Compressional Wave
 DEN .KG/M3  42 350 01 00:   HRDD STANDARD RESOLUTION FORMATION DENSITY
 PE  .B/E                :   HRDD Standard Resolution Formation Photoelectric Factor [F12.3]
 HDRA.KG/M3              :   HRDD DENSITY CORRECTION
 PDS .V/V                :   DENSITY POROSITY WITH SANDSTONE CALIBRATION
 PDL .V/V                :   DENSITY POROSITY WITH LIMESTONE CALIBRATION
 POS .V/V                :   NEUTRON POROSITY WITH SANDSTONE CALIBRATION
 POL .V/V                :   NEUTRON POROSITY WITH LIMESTONE CALIBRATION
 SPHI.V/V                :   Sonic Porosity [F12.3]
 PHIZ.V/V                :   INTERGRANULAR POROSITY
 RS  .OHMM               :   ARRAY INDUCTION FOUR FOOT RESISTIVITY A20
 RM  .OHMM               :   ARRAY INDUCTION FOUR FOOT RESISTIVITY A30
 RD  .OHMM   07 120 46 00:   Deep Induction Resistivity
~PARAMETER INFORMATION
#MNEM.UNIT          VALUE    DESCRIPTION
#----------   ------------   ------------------------------
 EKB .M          516.8000:   Kelly bushing
 EGL .M          518.9000:   Ground level
 EDF .M          516.5000:   Drilling floor
 EPD .M          518.9000:   Permanent datum
 TD  .M            0.0000:   Total depth
 NRUN.                  1:   Number of Runs
#--RUN 1---   ------------   The following are for Run 1---
 RUN .                  1:   Run 1
 DATE.        12-JAN-2023:   Logging Date
 TMAX.degC      105.00000:   (Borehole)      Max Recorded Temp
~Tops
SCATTER                           612.0
GARBUTT                           659.0
FANTASQUE                         696.5
MATTSON                           704.0
DEBOLT                            734.0
SHUNDER                           989.0
PEKISKO                          1109.0
BANFF                            1160.0
EXSHAW                           1690.0
KOTCHO                           1720.0
TETCHO                           1974.5
TROUT RIVER                      1986.0
KAKISA                           2051.5
FORT SIMPSON                     2101.0
MUSKWA                           2949.5
OTTER PARK                       3026.0
KLUA                             3083.5
EVIE                             3098.0
KEG RIVER                        3148.0
~A  DEPTH     DWTC      WCLAY       WCLC       WDOL       WPYR       WQFM       ECGR       HCGR        SGR       HURA       HTHO        HFK       WTOC      WCARB     WQTZ       RHGE      HCAL1      HCAL2   HD1_PPC1   HD2_PPC1      GR_ND         SP        DTP        DEN         PE       HDRA        PDS        PDL        POS        POL       SPHI       PHIZ         RS         RM         RD
# ...
 2909.2000     0.0094     0.4230     0.0348     0.0155     0.0096     0.5170   127.4331    90.8774   107.6925     2.9181    13.4372     2.6789     0.0035     0.0507     0.3438  2761.6985   197.5162   198.6303   203.6211   202.7561   113.2548 -1217.6658   286.9164  2710.0193     4.8122     0.2743    -0.0364     0.0000     0.2604     0.2088     0.2248     0.1489     3.4281     3.3521     3.1850
 2909.4000     0.0101     0.4084     0.0284     0.0192     0.0066     0.5375   123.8616    91.5808   107.2664     2.7461    13.6272     2.6849     0.0043     0.0475     0.3474  2760.2932   197.1053   198.4910   203.6881   202.7361   110.1992 -1217.1641   284.2642  2711.6965     4.7293     1.5363    -0.0374    -0.0010     0.2640     0.2123     0.2210     0.1493     3.4662     3.4055     3.2154
 2909.6000     0.0114     0.3816     0.0267     0.0165     0.0024     0.5728   122.1111    94.6802   108.5586     2.5641    14.2691     2.7449     0.0053     0.0432     0.3503  2758.0818   197.0229   197.8843   203.5553   202.8978   108.5478 -1215.7997   283.6936  2711.3120     4.6810     2.0127    -0.0372    -0.0008     0.2604     0.2087     0.2202     0.1485     3.5057     3.4463     3.2533
 2909.8000     0.0129     0.3764     0.0226     0.0263     0.0010     0.5748   121.1969    94.1297   108.9820     2.6180    14.3111     2.7076     0.0064     0.0488     0.3497  2757.6790   197.0780   198.8949   203.5595   203.0524   107.7313 -1216.6910   282.4527  2705.2546     4.7045     1.1523    -0.0335     0.0028     0.2607     0.2091     0.2185     0.1486     3.5665     3.5156     3.3329
 2910.0000     0.0153     0.3811     0.0177     0.0417     0.0003     0.5592   122.8823    93.2985   108.9659     2.5849    13.9027     2.7319     0.0076     0.0594     0.3470  2757.9785   196.6984   199.1863   204.3291   202.7553   109.2189 -1216.9399   281.0599  2700.1567     4.7333     1.1033    -0.0304     0.0058     0.2642     0.2127     0.2164     0.1498     3.6631     3.6060     3.4232
 2910.2000     0.0182     0.3726     0.0170     0.0560     0.0001     0.5539   124.9442    91.4568   108.4087     2.6816    13.5295     2.6948     0.0089     0.0733     0.3415  2759.5781   197.8048   199.1863   206.1493   204.1080   111.2070 -1216.1324   279.8269  2708.3472     4.7398     3.8501    -0.0354     0.0010     0.2716     0.2200     0.2146     0.1558     3.7377     3.6701     3.4868
 2910.4000     0.0194     0.3688     0.0199     0.0631     0.0000     0.5483   126.1064    91.4145   109.9659     2.7676    13.3170     2.7287     0.0093     0.0825     0.3366  2761.0564   198.8303   198.8613   206.4338   204.9977   111.5200 -1214.8782   279.6762  2714.2104     4.7292     5.3103    -0.0389    -0.0025     0.2793     0.2277     0.2144     0.1622     3.7585     3.6882     3.5138
 2910.6000     0.0185     0.3597     0.0312     0.0558     0.0000     0.5532   125.4791    93.2169   110.3851     2.5803    13.8284     2.7401     0.0077     0.0871     0.3305  2762.3584   198.7588   199.7231   206.7177   205.3020   110.9453 -1214.9084   280.1182  2705.1782     4.7419     2.7868    -0.0334     0.0028     0.2757     0.2243     0.2151     0.1628     3.7743     3.7028     3.5274
 2910.8000     0.0172     0.3533     0.0408     0.0487     0.0000     0.5572   122.8875    91.0532   108.8848     2.6311    13.6185     2.6575     0.0057     0.0895     0.3267  2763.5034   198.9196   199.4858   206.7300   205.4484   108.9556 -1215.2371   280.8148  2698.8567     4.7761     1.0470    -0.0296     0.0065     0.2797     0.2282     0.2161     0.1601     3.7913     3.7243     3.5445
 2911.0000     0.0164     0.3677     0.0380     0.0563     0.0015     0.5365   121.0056    88.3039   107.3884     2.7204    13.0112     2.6108     0.0045     0.0944     0.3256  2765.4639   199.2395   199.5340   204.1588   202.4958   107.4653 -1215.5660   279.2324  2704.1780     4.7766     1.5221    -0.0328     0.0034     0.2775     0.2259     0.2138     0.1558     3.8037     3.7342     3.5499
 2911.2000     0.0150     0.3915     0.0297     0.0688     0.0079     0.5023   123.2424    89.0849   109.0015     2.7850    12.7874     2.6918     0.0029     0.0984     0.3261  2768.9048   199.2810   198.9096   203.0005   201.3566   109.5984 -1215.3214   279.5818  2707.0459     4.7260     1.3389    -0.0346     0.0017     0.2789     0.2274     0.2143     0.1549     3.7965     3.7283     3.5434
 2911.4000     0.0145     0.4015     0.0247     0.0734     0.0126     0.4878   124.9634    89.8645   109.4968     2.7956    13.0452     2.6904     0.0028     0.0981     0.3278  2770.3601   197.4132   198.9631   202.8030   201.1353   111.1907 -1214.0062   279.7019  2711.8618     4.6127     1.0060    -0.0375    -0.0011     0.2740     0.2225     0.2145     0.1556     3.7925     3.7179     3.5360
 2911.6000     0.0149     0.3880     0.0252     0.0624     0.0130     0.5113   129.8067    91.7608   110.4182     2.7581    13.8720     2.6529     0.0047     0.0876     0.3316  2769.0662   197.4549   199.7711   202.9077   201.1375   115.1922 -1214.9528   279.7788  2711.2783     4.5484     1.0113    -0.0371    -0.0008     0.2733     0.2218     0.2146     0.1578     3.7911     3.7129     3.5402
 2911.8000     0.0167     0.3710     0.0329     0.0300     0.0101     0.5559   126.6950    90.6125   109.0193     2.8051    13.4134     2.6684     0.0087     0.0630     0.3386  2765.3853   197.6776   199.9486   204.0640   203.0328   112.4035 -1214.3879   279.2368  2699.7625     4.6336     1.0327    -0.0302     0.0060     0.2758     0.2241     0.2138     0.1581     3.8182     3.7344     3.5597
 2912.0000     0.0176     0.3559     0.0362     0.0057     0.0057     0.5965   123.6731    89.9623   106.7406     2.5719    13.3244     2.6480     0.0116     0.0419     0.3453  2762.3989   197.5090   199.9416   204.1083   202.3235   109.7206 -1213.6836   279.6465  2690.7678     4.7262     1.2028    -0.0247     0.0112     0.2681     0.2165     0.2144     0.1575     3.8314     3.7498     3.5694
 2912.2000     0.0173     0.3454     0.0343     0.0000     0.0017     0.6186   122.0484    86.1247   105.1790     2.8510    12.2006     2.6299     0.0124     0.0343     0.3480  2761.4287   197.6225   200.1174   203.5716   202.1823   108.3996 -1214.4790   280.2063  2687.3042     4.7549     1.8875    -0.0226     0.0133     0.2774     0.2258     0.2152     0.1602     3.8527     3.7821     3.6100
 2912.4000     0.0159     0.3510     0.0360     0.0030     0.0006     0.6103   118.4535    84.2105   104.7877     3.0698    11.8013     2.5934     0.0110     0.0381     0.3457  2762.7708   197.4480   199.1223   203.5433   202.0977   105.2194 -1213.4816   279.9980  2680.2341     4.8262     2.3025    -0.0183     0.0174     0.2867     0.2352     0.2149     0.1623     3.8231     3.7566     3.5927
 2912.6000     0.0139     0.3643     0.0261     0.0196     0.0007     0.5893   118.1431    85.3115   105.2396     3.0360    12.1938     2.5866     0.0080     0.0457     0.3463  2763.3337   197.1682   199.9901   203.7247   202.6051   104.9486 -1212.1047   281.7582  2680.4517     4.9514     3.2090    -0.0185     0.0173     0.2828     0.2314     0.2175     0.1623     3.7703     3.7155     3.5551
 2912.8000     0.0127     0.3759     0.0097     0.0469     0.0008     0.5666   121.5590    90.1906   106.7709     2.7286    13.7579     2.5865     0.0057     0.0566     0.3505  2761.0042   197.0359   200.4333   203.5927   202.9346   107.9946 -1211.5479   282.5056  2688.8997     4.9818     4.8349    -0.0236     0.0123     0.2856     0.2343     0.2185     0.1630     3.7373     3.6716     3.5076
 2913.0000     0.0137     0.3726     0.0012     0.0651     0.0012     0.5593   122.9022    90.3637   108.2063     2.7591    13.8064     2.5876     0.0052     0.0663     0.3514  2760.0610   196.8776   199.8024   203.8559   203.2597   109.1853 -1210.9070   283.1309  2692.8186     4.8017     4.0950    -0.0259     0.0100     0.2801     0.2287     0.2194     0.1612     3.6986     3.6235     3.4671
 2913.2000     0.0157     0.3581     0.0006     0.0756     0.0021     0.5635   127.2899    90.0033   107.2689     2.7092    13.6173     2.6002     0.0058     0.0762     0.3476  2761.5098   197.1064   198.8158   203.8669   203.2996   113.1541 -1211.6545   284.2428  2692.0002     4.6572     1.6574    -0.0255     0.0105     0.2695     0.2180     0.2210     0.1591     3.6853     3.6010     3.4440
