~VERSION INFORMATION
 VERS.               2.10:   CWLS LOG ASCII STANDARD - VERSION 2.10
 WRAP.                 NO:   ONE LINE PER DEPTH STEP
~WELL INFORMATION
#MNEM.UNIT      DATA TYPE    INFORMATION
#----------   ------------   ------------------------------
 STRT.M         2800.0000:   Start depth
 STOP.M         3210.0000:   Stop depth
 STEP.M            0.2000:   Step length
 NULL.          -999.2500:   No value
 WELL.                   :   Well
 FLD .                   :   Field
 LOC .                   :   Location
 SRVC.                   :   Service company
 DATE.        12-JAN-2023:   logging date
 WSTA.           Location:   Well status
~CURVE INFORMATION
#MNEM.UNIT       API CODE    CURVE DESCRIPTION
#----------   ------------   ------------------------------
 DEPT.M                  :   DEPTH
 DWTC.V/V                :   Dry Weight Total Carbon (Borehole corrected) {F13.4}
 WCLAY.V/V               :   Dry Weight of Clay
 WCLC.V/V                :   Dry Weight Calcite (Inelastic Capture Closure) {F13.4}
 WDOL.V/V                :   Dry Weight Dolomite (Inelastic Capture Closure) {F13.4}
 WPYR.V/V                :   WEIGHT FRACTION PYRITE
 WQFM.V/V                :   WEIGHT FRACTION QUARTZ AND FELDSPAR AND MICA
 ECGR.GAPI               :   GAMMA-RAY {F13.5}
 HCGR.GAPI               :   (HNGS-BA) (6IN) GAMMA RAY CONTRIBUTION FROM THORIUM AND POTASSIUM
 SGR .GAPI               :   (HNGS-BA) (6IN) SPECTROSCOPY GAMMA RAY
 HURA.PPM                :   URANIUM CONCENTRATION
 HTHO.PPM                :   THORIUM CONCENTRATION
 HFK .V/V                :   POTASSIUM CONCENTRATION
 WTOC.V/V                :   Dry Weight Total Organic Carbon
 WCARB.V/V               :   Weight fraction of carbonate
 WQTZ.V/V                :   Weight fraction of quartz
 RHGE.KG/M3              :   MATRIX DENSITY FROM ELEMENTAL CONCENTRATIONS - SPECTROLITH WALK2 MODEL 
 HCAL1.MM                :   Caliper  (HDRS-H[1])  (1IN) CALIPER
 HCAL2.MM                :   Caliper  (HDRS-H[2])  (1IN) CALIPER
 HD1_PPC1.MM             :   PPC1 ELLIPSE HOLE DIAMETER 1 {F14.5}
 HD2_PPC1.MM             :   PPC1 ELLIPSE HOLE DIAMETER 2 {F14.5}
 GR_ND.GAPI  42 310 00 00:   Gamma Ray
 SP  .MV     05 010 01 00:   Spontaneous Potential
 DTP .US/M   60 520 00 00:   Compressional Wave
 DEN .KG/M3  42 350 01 00:   HRDD STANDARD RESOLUTION FORMATION DENSITY
 PE  .B/E                :   HRDD Standard Resolution Formation Photoelectric Factor [F12.3]
 HDRA.KG/M3              :   HRDD DENSITY CORRECTION
 PDS .V/V                :   DENSITY POROSITY WITH SANDSTONE CALIBRATION
 PDL .V/V                :   DENSITY POROSITY WITH LIMESTONE CALIBRATION
 POS .V/V                :   NEUTRON POROSITY WITH SANDSTONE CALIBRATION
 POL .V/V                :   NEUTRON POROSITY WITH LIMESTONE CALIBRATION
 SPHI.V/V                :   Sonic Porosity [F12.3]
 PHIZ.V/V                :   INTERGRANULAR POROSITY
 RS  .OHMM               :   ARRAY INDUCTION FOUR FOOT RESISTIVITY A20
 RM  .OHMM               :   ARRAY INDUCTION FOUR FOOT RESISTIVITY A30
 RD  .OHMM   07 120 46 00:   Deep Induction Resistivity
~PARAMETER INFORMATION
#MNEM.UNIT          VALUE    DESCRIPTION
#----------   ------------   ------------------------------
 EKB .M          516.8000:   Kelly bushing
 EGL .M          518.9000:   Ground level
 EDF .M          516.5000:   Drilling floor
 EPD .M          518.9000:   Permanent datum
 TD  .M            0.0000:   Total depth
 NRUN.                  1:   Number of Runs
#--RUN 1---   ------------   The following are for Run 1---
 RUN .                  1:   Run 1
 DATE.        12-JAN-2023:   Logging Date
 TMAX.degC      105.00000:   (Borehole)      Max Recorded Temp
~Tops
SCATTER                           612.0
GARBUTT                           659.0
FANTASQUE                         696.5
MATTSON                           704.0
DEBOLT                            734.0
SHUNDER                           989.0
PEKISKO                          1109.0
BANFF                            1160.0
EXSHAW                           1690.0
KOTCHO                           1720.0
TETCHO                           1974.5
TROUT RIVER                      1986.0
KAKISA                           2051.5
FORT SIMPSON                     2101.0
MUSKWA                           2949.5
OTTER PARK                       3026.0
KLUA                             3083.5
EVIE                             3098.0
KEG RIVER                        3148.0
~A  DEPTH     DWTC      WCLAY       WCLC       WDOL       WPYR       WQFM       ECGR       HCGR        SGR       HURA       HTHO        HFK       WTOC      WCARB     WQTZ       RHGE      HCAL1      HCAL2   HD1_PPC1   HD2_PPC1      GR_ND         SP        DTP        DEN         PE       HDRA        PDS        PDL        POS        POL       SPHI       PHIZ         RS         RM         RD
# ...
 3073.0000     0.0636     0.2217     0.3726     0.0578     0.0170     0.3313    73.8443    48.6550    65.5755     2.4202     6.2561     1.5943     0.0124     0.4301     0.2182  2737.0503   200.9567   200.3434   199.9800   199.8272    66.0019 -1334.1835   217.1949  2717.3792     5.0488     4.3223    -0.0408    -0.0043     0.1327     0.0880     0.0963     0.0792    26.0109    25.3822    24.3921
 3073.2000     0.0639     0.2120     0.3552     0.0470     0.0165     0.3694    76.1082    49.4624    67.1011     2.5310     6.2743     1.6354     0.0156     0.4022     0.2289  2736.2065   200.5782   200.1732   199.7048   199.7354    68.0415 -1336.0295   219.4182  2706.1382     4.9440     2.2296    -0.0340     0.0023     0.1247     0.0808     0.1017     0.0759    25.7753    25.0224    23.8582
 3073.4000     0.0622     0.2215     0.3191     0.0476     0.0159     0.3960    79.4582    50.1604    67.0011     2.4360     6.5428     1.6277     0.0179     0.3666     0.2431  2736.2920   200.4274   200.3273   199.9243   199.9599    70.9810 -1335.4587   223.4581  2692.0317     4.7869    -0.4842    -0.0255     0.0105     0.1347     0.0901     0.1111     0.0772    25.2509    24.7225    23.5471
 3073.6000     0.0583     0.2456     0.2636     0.0631     0.0163     0.4113    81.3423    50.5573    67.2342     2.4529     6.4890     1.6587     0.0186     0.3267     0.2591  2738.7285   200.8464   200.6610   200.0285   199.9576    72.6627 -1332.4556   227.8800  2691.1340     4.6584     0.4603    -0.0249     0.0110     0.1339     0.0887     0.1210     0.0846    23.2980    22.6764    21.8077
 3073.8000     0.0534     0.2574     0.2101     0.0764     0.0188     0.4372    83.1159    53.4628    72.9659     2.8224     6.6718     1.7865     0.0180     0.2866     0.2745  2743.2344   201.2719   200.9214   199.8046   200.0564    74.2237 -1336.4069   229.8550  2688.4739     4.5836     1.3612    -0.0233     0.0126     0.1479     0.1015     0.1254     0.0916    21.1152    20.6960    19.9096
 3074.0000     0.0485     0.2601     0.1663     0.0829     0.0224     0.4682    87.3129    57.2925    78.3227     3.0621     7.2944     1.8897     0.0174     0.2493     0.2881  2748.4192   200.5606   201.0012   200.0351   200.0982    78.0086 -1336.3466   233.8058  2675.7236     4.5213    -0.2723    -0.0156     0.0200     0.1656     0.1179     0.1338     0.0982    19.5561    18.9118    18.2164
 3074.2000     0.0444     0.2738     0.1325     0.0834     0.0292     0.4811    93.9055    57.5066    80.4449     3.3060     7.4569     1.8737     0.0167     0.2158     0.3006  2753.3921   200.6399   201.2323   200.0197   199.9461    83.8935 -1334.2219   237.2366  2673.8093     4.4426    -0.2405    -0.0144     0.0212     0.1613     0.1139     0.1406     0.1002    18.8338    18.1320    17.3075
 3074.4000     0.0420     0.2700     0.1195     0.0814     0.0337     0.4953    96.8719    57.3540    79.5252     3.2130     7.7104     1.8221     0.0160     0.2010     0.3080  2754.8611   200.5282   201.3873   200.1722   199.9393    86.5084 -1334.9854   240.5765  2671.2957     4.4003    -0.3378    -0.0129     0.0226     0.1608     0.1134     0.1477     0.1000    18.6857    17.9087    16.9896
 3074.6000     0.0401     0.2505     0.1159     0.0847     0.0347     0.5141    99.9670    58.2553    81.6463     3.3896     8.1285     1.8000     0.0152     0.2006     0.3118  2752.4102   200.4213   201.3812   199.9069   200.1204    89.2725 -1335.2441   242.6703  2663.3828     4.3487     1.0467    -0.0081     0.0273     0.1562     0.1091     0.1518     0.0985    18.7539    18.0022    17.0377
 3074.8000     0.0382     0.2259     0.1124     0.0858     0.0346     0.5415   105.0539    64.5693    88.0415     3.3846     9.4895     1.9131     0.0147     0.1980     0.3191  2746.6021   201.2627   201.7049   199.7527   199.6614    93.7747 -1332.3136   244.6379  2652.9451     4.2258     4.0608    -0.0018     0.0334     0.1534     0.1065     0.1556     0.0959    19.0773    18.4106    17.4240
 3075.0000     0.0369     0.2061     0.1070     0.0754     0.0328     0.5787   106.8568    67.5478    92.7943     3.5957    10.2643     1.9437     0.0150     0.1824     0.3303  2738.8235   200.9903   201.5720   199.6821   199.8051    95.3953 -1330.1344   245.4089  2630.6877     4.1086     2.9000     0.0117     0.0464     0.1493     0.1027     0.1571     0.0952    19.3221    18.8013    17.7921
 3075.2000     0.0358     0.2146     0.1036     0.0511     0.0316     0.5989   108.5320    68.0471    93.0913     3.4944    10.4952     1.9316     0.0166     0.1547     0.3453  2729.4812   200.7012   201.0283   199.7075   199.4424    96.9663 -1334.7360   245.3137  2610.9375     4.0793    -0.0979     0.0237     0.0579     0.1559     0.1089     0.1569     0.0992    19.6199    19.1098    18.1272
 3075.4000     0.0350     0.2609     0.0995     0.0222     0.0325     0.5849   109.9518    66.9054    90.8904     3.3331    10.5860     1.8538     0.0182     0.1217     0.3603  2721.4214   200.2956   200.3206   199.4603   199.8112    98.2689 -1337.0936   245.6556  2607.8215     4.0536    -0.5655     0.0256     0.0598     0.1575     0.1104     0.1576     0.1029    19.7551    19.1868    18.2596
 3075.6000     0.0348     0.2893     0.0855     0.0325     0.0326     0.5600   108.1644    63.5938    87.1986     3.2584    10.0096     1.7708     0.0186     0.1170     0.3613  2722.2551   200.5578   200.2428   199.6970   199.6335    96.6100 -1333.3777   245.6949  2606.8313     3.9745    -2.3581     0.0262     0.0603     0.1522     0.1054     0.1578     0.1044    19.7306    19.0681    18.1829
 3075.8000     0.0354     0.3103     0.0672     0.0687     0.0324     0.5214   107.5039    62.0971    85.0986     3.1031     9.5933     1.7600     0.0177     0.1359     0.3502  2729.3618   201.1304   200.8411   199.6938   199.8940    96.0912 -1335.0146   246.3131  2604.7976     3.9084    -5.5060     0.0274     0.0615     0.1559     0.1089     0.1588     0.1039    19.6320    18.8955    18.0654
 3076.0000     0.0360     0.3134     0.0650     0.0966     0.0303     0.4948   105.2360    63.1167    86.9579     3.1782     9.5422     1.8245     0.0164     0.1616     0.3357  2736.1423   201.5783   200.7927   199.4686   199.7014    94.1079 -1339.5087   245.8979  2618.3662     3.9240    -4.3287     0.0192     0.0536     0.1537     0.1069     0.1580     0.1021    19.5116    18.7818    17.9601
 3076.2000     0.0368     0.2964     0.0836     0.0946     0.0258     0.4997   101.7527    63.9535    86.8469     3.0559     9.5057     1.8766     0.0158     0.1782     0.3259  2737.5759   201.3946   201.3320   199.7400   199.9362    90.9295 -1341.5900   246.7330  2631.0405     4.1095    -2.0314     0.0115     0.0462     0.1566     0.1095     0.1596     0.1013    19.3726    18.6935    17.8325
 3076.4000     0.0378     0.2626     0.1221     0.0528     0.0212     0.5412   101.1351    61.8343    85.8149     3.1817     8.7668     1.8867     0.0166     0.1749     0.3264  2732.2014   200.1864   200.7311   200.1056   199.4517    90.4210 -1341.1132   246.2917  2622.2288     4.4438    -5.5675     0.0168     0.0513     0.1582     0.1109     0.1588     0.1036    19.1172    18.5739    17.6935
 3076.6000     0.0386     0.2214     0.1564     0.0121     0.0191     0.5911    99.1415    61.8405    87.7642     3.4918     8.3364     1.9607     0.0178     0.1684     0.3317  2725.9668   199.5640   200.9939   199.4852   199.9149    88.6234 -1340.3376   245.9187  2613.0156     4.6672    -8.9975     0.0224     0.0567     0.1607     0.1132     0.1581     0.1048    19.1748    18.7180    17.7775
 3076.8000     0.0391     0.1996     0.1687     0.0000     0.0195     0.6123    97.3939    59.8993    86.4133     3.5992     7.9013     1.9287     0.0182     0.1687     0.3341  2723.7375   199.4757   201.7535   199.3922   199.9577    87.0905 -1342.9177   245.5087  2618.7441     4.6446    -7.0574     0.0189     0.0534     0.1611     0.1135     0.1573     0.1044    19.3417    18.9565    18.0483
 3077.0000     0.0390     0.2078     0.1734     0.0044     0.0214     0.5931   101.9686    58.4223    85.2984     3.7532     7.7144     1.8798     0.0172     0.1777     0.3300  2725.2644   200.7520   201.7495   199.7200   200.0671    91.1056 -1343.2385   244.6861  2631.5261     4.4311    -2.7207     0.0112     0.0459     0.1618     0.1144     0.1557     0.1008    19.6049    19.1661    18.1314
