~VERSION INFORMATION
 VERS.               2.10:   CWLS LOG ASCII STANDARD - VERSION 2.10
 WRAP.                 NO:   ONE LINE PER DEPTH STEP
~WELL INFORMATION
#MNEM.UNIT      DATA TYPE    INFORMATION
#----------   ------------   ------------------------------
 STRT.M         2800.0000:   Start depth
 STOP.M         3210.0000:   Stop depth
 STEP.M            0.2000:   Step length
 NULL.          -999.2500:   No value
 WELL.                   :   Well
 FLD .                   :   Field
 LOC .                   :   Location
 SRVC.                   :   Service company
 DATE.        12-JAN-2023:   logging date
 WSTA.           Location:   Well status
~CURVE INFORMATION
#MNEM.UNIT       API CODE    CURVE DESCRIPTION
#----------   ------------   ------------------------------
 DEPT.M                  :   DEPTH
 DWTC.V/V                :   Dry Weight Total Carbon (Borehole corrected) {F13.4}
 WCLAY.V/V               :   Dry Weight of Clay
 WCLC.V/V                :   Dry Weight Calcite (Inelastic Capture Closure) {F13.4}
 WDOL.V/V                :   Dry Weight Dolomite (Inelastic Capture Closure) {F13.4}
 WPYR.V/V                :   WEIGHT FRACTION PYRITE
 WQFM.V/V                :   WEIGHT FRACTION QUARTZ AND FELDSPAR AND MICA
 ECGR.GAPI               :   GAMMA-RAY {F13.5}
 HCGR.GAPI               :   (HNGS-BA) (6IN) GAMMA RAY CONTRIBUTION FROM THORIUM AND POTASSIUM
 SGR .GAPI               :   (HNGS-BA) (6IN) SPECTROSCOPY GAMMA RAY
 HURA.PPM                :   URANIUM CONCENTRATION
 HTHO.PPM                :   THORIUM CONCENTRATION
 HFK .V/V                :   POTASSIUM CONCENTRATION
 WTOC.V/V                :   Dry Weight Total Organic Carbon
 WCARB.V/V               :   Weight fraction of carbonate
 WQTZ.V/V                :   Weight fraction of quartz
 RHGE.KG/M3              :   MATRIX DENSITY FROM ELEMENTAL CONCENTRATIONS - SPECTROLITH WALK2 MODEL 
 HCAL1.MM                :   Caliper  (HDRS-H[1])  (1IN) CALIPER
 HCAL2.MM                :   Caliper  (HDRS-H[2])  (1IN) CALIPER
 HD1_PPC1.MM             :   PPC1 ELLIPSE HOLE DIAMETER 1 {F14.5}
 HD2_PPC1.MM             :   PPC1 ELLIPSE HOLE DIAMETER 2 {F14.5}
 GR_ND.GAPI  42 310 00 00:   Gamma Ray
 SP  .MV     05 010 01 00:   Spontaneous Potential
 DTP .US/M   60 520 00 00:   Compressional Wave
 DEN .KG/M3  42 350 01 00:   HRDD STANDARD RESOLUTION FORMATION DENSITY
 PE  .B/E                :   HRDD Standard Resolution Formation Photoelectric Factor [F12.3]
 HDRA.KG/M3              :   HRDD DENSITY CORRECTION
 PDS .V/V                :   DENSITY POROSITY WITH SANDSTONE CALIBRATION
 PDL .V/V                :   DENSITY POROSITY WITH LIMESTONE CALIBRATION
 POS .V/V                :   NEUTRON POROSITY WITH SANDSTONE CALIBRATION
 POL .V/V                :   NEUTRON POROSITY WITH LIMESTONE CALIBRATION
 SPHI.V/V                :   Sonic Porosity [F12.3]
 PHIZ.V/V                :   INTERGRANULAR POROSITY
 RS  .OHMM               :   ARRAY INDUCTION FOUR FOOT RESISTIVITY A20
 RM  .OHMM               :   ARRAY INDUCTION FOUR FOOT RESISTIVITY A30
 RD  .OHMM   07 120 46 00:   Deep Induction Resistivity
~PARAMETER INFORMATION
#MNEM.UNIT          VALUE    DESCRIPTION
#----------   ------------   ------------------------------
 EKB .M          516.8000:   Kelly bushing
 EGL .M          518.9000:   Ground level
 EDF .M          516.5000:   Drilling floor
 EPD .M          518.9000:   Permanent datum
 TD  .M            0.0000:   Total depth
 NRUN.                  1:   Number of Runs
#--RUN 1---   ------------   The following are for Run 1---
 RUN .                  1:   Run 1
 DATE.        12-JAN-2023:   Logging Date
 TMAX.degC      105.00000:   (Borehole)      Max Recorded Temp
~Tops
SCATTER                           612.0
GARBUTT                           659.0
FANTASQUE                         696.5
MATTSON                           704.0
DEBOLT                            734.0
SHUNDER                           989.0
PEKISKO                          1109.0
BANFF                            1160.0
EXSHAW                           1690.0
KOTCHO                           1720.0
TETCHO                           1974.5
TROUT RIVER                      1986.0
KAKISA                           2051.5
FORT SIMPSON                     2101.0
MUSKWA                           2949.5
OTTER PARK                       3026.0
KLUA                             3083.5
EVIE                             3098.0
KEG RIVER                        3148.0
~A  DEPTH     DWTC      WCLAY       WCLC       WDOL       WPYR       WQFM       ECGR       HCGR        SGR       HURA       HTHO        HFK       WTOC      WCARB     WQTZ       RHGE      HCAL1      HCAL2   HD1_PPC1   HD2_PPC1      GR_ND         SP        DTP        DEN         PE       HDRA        PDS        PDL        POS        POL       SPHI       PHIZ         RS         RM         RD
# ...
 2963.8000     0.0322     0.1172     0.0428     0.0005     0.0169     0.8226   173.1530    40.5348   150.4698    14.6365     7.0928     1.0070     0.0267     0.0433     0.4181  2687.6145   202.3013   201.1800   200.5402   200.2317   154.5737 -1196.8466   229.7378  2523.2085     3.1039     0.4476     0.0768     0.1092     0.1024     0.0617     0.1252     0.0879    18.1173    16.1487    17.0603
 2964.0000     0.0321     0.1104     0.0381     0.0019     0.0195     0.8301   168.1757    39.1720   148.7494    14.6404     6.8941     0.9663     0.0268     0.0400     0.4204  2688.6794   201.8695   201.1032   200.8967   199.7639   150.1047 -1198.2772   226.9265  2521.7046     3.1671    -2.2758     0.0778     0.1101     0.0919     0.0526     0.1190     0.0874    37.6709    26.1685    27.7428
 2964.2000     0.0328     0.0915     0.0414     0.0021     0.0203     0.8449   163.9285    35.3366   141.3393    14.1887     5.8512     0.9346     0.0270     0.0434     0.4187  2690.5552   201.5470   200.6046   200.6566   200.1248   146.3155 -1199.0747   227.5913  2535.0435     3.2863    -4.1481     0.0697     0.1023     0.0891     0.0504     0.1205     0.0842    57.0118    33.9938    33.8937
 2964.4000     0.0338     0.0829     0.0567     0.0003     0.0202     0.8399   153.9544    31.4746   130.7451    13.2926     5.0478     0.8603     0.0266     0.0570     0.4108  2694.1211   202.2126   200.9167   200.6440   200.2257   137.3519 -1199.4412   226.4922  2596.7007     3.6228    -4.1990     0.0323     0.0663     0.0915     0.0524     0.1180     0.0813    65.3606    38.3666    35.4545
 2964.6000     0.0346     0.0902     0.0726     0.0038     0.0196     0.8138   143.1061    28.1446   120.7582    12.3610     4.4449     0.7811     0.0257     0.0764     0.3988  2699.8296   202.0573   201.3864   200.7703   200.0502   127.6398 -1200.8993   227.6832  2654.0254     4.2526    -8.8249    -0.0024     0.0327     0.0846     0.0457     0.1207     0.0738    54.6517    39.1646    34.3136
 2964.8000     0.0341     0.1031     0.0631     0.0246     0.0205     0.7886   150.6120    29.1880   122.7055    12.5013     4.8583     0.7676     0.0240     0.0877     0.3907  2706.3242   202.3307   201.0179   201.0122   199.9964   134.3688 -1200.3123   228.2992  2638.5374     4.6831   -17.8818     0.0069     0.0418     0.0976     0.0572     0.1220     0.0633    46.3733    38.4410    32.3071
 2965.0000     0.0323     0.1175     0.0449     0.0470     0.0236     0.7669   164.8725    34.9687   132.7219    13.0713     5.8742     0.9105     0.0218     0.0919     0.3880  2711.5588   202.1948   201.9681   201.2286   200.6979   147.1150 -1199.2452   229.3079  2588.8804     4.3102   -17.0790     0.0370     0.0708     0.1209     0.0786     0.1242     0.0661    40.1356    37.3727    32.9892
 2965.2000     0.0300     0.1104     0.0299     0.0507     0.0266     0.7823   167.5373    35.6991   137.4629    13.5782     6.0784     0.9156     0.0204     0.0806     0.3952  2711.2153   202.1490   201.9826   201.2157   200.8056   149.4406 -1199.2750   230.7183  2559.0854     3.6747    -9.1822     0.0551     0.0883     0.1105     0.0687     0.1273     0.0731    38.3547    37.0793    34.2955
 2965.4000     0.0281     0.0927     0.0281     0.0328     0.0263     0.8201   169.5445    34.0863   134.3588    13.3963     5.6830     0.8948     0.0200     0.0609     0.4075  2704.2717   202.2303   201.2993   201.3392   200.4352   151.2229 -1199.4611   230.7404  2548.5132     3.3628    -3.8608     0.0615     0.0944     0.1038     0.0625     0.1274     0.0823    38.6434    37.4603    34.1930
 2965.6000     0.0271     0.0934     0.0333     0.0151     0.0230     0.8353   170.7389    33.4433   134.0988    13.4383     5.3240     0.9210     0.0208     0.0483     0.4159  2696.0669   203.7090   201.8963   202.0536   201.0190   152.2640 -1197.9063   234.2077  2538.8159     3.2694    -3.4524     0.0674     0.1001     0.1009     0.0603     0.1347     0.0834    38.8952    37.7750    34.5122
 2965.8000     0.0275     0.1088     0.0333     0.0065     0.0194     0.8320   166.2707    33.0428   129.5732    12.8399     5.2647     0.9092     0.0226     0.0398     0.4208  2690.4180   202.8689   201.9665   201.9058   201.3221   148.1405 -1198.2914   233.9034  2533.2061     3.2317    -4.1843     0.0708     0.1034     0.0981     0.0581     0.1341     0.0842    36.1920    34.9863    32.1125
 2966.0000     0.0298     0.1384     0.0293     0.0008     0.0174     0.8142   167.0334    32.7284   126.9125    12.5478     5.2404     0.8961     0.0257     0.0301     0.4241  2687.3853   202.1559   201.7780   201.3543   200.8229   148.9482 -1199.9203   234.0198  2536.5984     3.3105    -4.3346     0.0687     0.1014     0.0976     0.0573     0.1342     0.0850    32.8460    31.8933    29.2993
 2966.2000     0.0308     0.1642     0.0248     0.0000     0.0180     0.7929   179.1644    35.3510   135.8120    13.4166     5.4667     1.0010     0.0270     0.0248     0.4244  2688.6738   202.4139   201.5286   201.2424   200.6796   159.7933 -1200.4174   232.7518  2554.1143     3.4471    -1.1197     0.0581     0.0912     0.1055     0.0640     0.1316     0.0876    29.4273    29.0560    26.7085
 2966.4000     0.0290     0.1677     0.0279     0.0000     0.0180     0.7864   179.8919    38.3974   143.0737    13.9526     5.5525     1.1531     0.0252     0.0279     0.4207  2690.6763   202.3403   201.5248   201.1781   200.6885   160.4385 -1200.4382   232.4506  2573.7468     3.4750     2.5965     0.0462     0.0797     0.1234     0.0805     0.1310     0.0869    27.7986    27.8081    25.4833
 2966.6000     0.0259     0.1454     0.0366     0.0005     0.0145     0.8030   169.3678    37.6871   136.8764    13.1879     5.4499     1.1317     0.0216     0.0371     0.4168  2690.0281   202.0947   200.7851   201.0650   201.0739   151.1941 -1200.5280   230.5842  2571.9019     3.3941     1.7493     0.0473     0.0808     0.1099     0.0686     0.1275     0.0799    27.9850    28.2841    25.5861
 2966.8000     0.0245     0.1183     0.0431     0.0049     0.0112     0.8224   157.2082    34.5356   125.4627    12.0874     5.0255     1.0318     0.0189     0.0480     0.4127  2689.5247   201.9067   200.7570   200.3782   199.5683   140.3519 -1200.3395   227.0902  2556.5620     3.2629    -0.9240     0.0566     0.0897     0.0839     0.0451     0.1193     0.0730    29.1668    29.4752    26.2029
 2967.0000     0.0242     0.0973     0.0514     0.0050     0.0111     0.8352   167.6389    36.3049   127.7619    12.2173     5.3763     1.0687     0.0175     0.0564     0.4106  2689.5337   201.2071   200.8277   200.3964   199.5486   149.8455 -1200.6838   226.1897  2552.8149     3.2569    -2.7194     0.0589     0.0919     0.0949     0.0551     0.1173     0.0700    31.0014    30.7273    26.8054
 2967.2000     0.0255     0.0887     0.0630     0.0000     0.0140     0.8343   189.5281    41.8450   143.6737    13.6185     6.4036     1.1964     0.0177     0.0630     0.4084  2691.3083   201.8924   201.4030   200.3485   199.9089   169.3507 -1201.8846   225.6429  2604.3206     3.5037     0.1012     0.0277     0.0618     0.1050     0.0638     0.1161     0.0754    33.3531    31.8969    27.9694
 2967.4000     0.0275     0.1001     0.0694     0.0003     0.0192     0.8111   188.9748    45.9010   152.0621    14.1955     7.0752     1.3037     0.0190     0.0697     0.4033  2696.2627   201.7587   200.9731   200.1563   200.9864   168.8830 -1202.0780   223.5436  2679.8298     3.8264     5.8373    -0.0180     0.0177     0.1203     0.0777     0.1119     0.0791    35.7835    33.0875    29.3151
 2967.6000     0.0293     0.1214     0.0752     0.0039     0.0219     0.7775   160.3431    41.1656   133.9867    12.4492     6.3447     1.1693     0.0198     0.0791     0.3969  2700.1414   201.9432   201.0831   200.5475   200.0218   143.2903 -1201.7251   224.9992  2693.1719     3.8097     8.9742    -0.0262     0.0098     0.1047     0.0635     0.1146     0.0741    37.7171    34.7035    31.4357
 2967.8000     0.0309     0.1323     0.0795     0.0091     0.0177     0.7614   156.7205    37.5198   116.2222    10.5152     5.7959     1.0635     0.0206     0.0886     0.3921  2698.7021   201.5883   201.2139   200.1180   199.4580   139.8679 -1200.8217   223.2878  2633.1824     3.5404     3.9495     0.0102     0.0449     0.0965     0.0560     0.1107     0.0740    39.2329    36.6353    34.7142
