~VERSION INFORMATION
 VERS.               2.10:   CWLS LOG ASCII STANDARD - VERSION 2.10
 WRAP.                 NO:   ONE LINE PER DEPTH STEP
~WELL INFORMATION
#MNEM.UNIT      DATA TYPE    INFORMATION
#----------   ------------   ------------------------------
 STRT.M         2800.0000:   Start depth
 STOP.M         3210.0000:   Stop depth
 STEP.M            0.2000:   Step length
 NULL.          -999.2500:   No value
 WELL.                   :   Well
 FLD .                   :   Field
 LOC .                   :   Location
 SRVC.                   :   Service company
 DATE.        12-JAN-2023:   logging date
 WSTA.           Location:   Well status
~CURVE INFORMATION
#MNEM.UNIT       API CODE    CURVE DESCRIPTION
#----------   ------------   ------------------------------
 DEPT.M                  :   DEPTH
 DWTC.V/V                :   Dry Weight Total Carbon (Borehole corrected) {F13.4}
 WCLAY.V/V               :   Dry Weight of Clay
 WCLC.V/V                :   Dry Weight Calcite (Inelastic Capture Closure) {F13.4}
 WDOL.V/V                :   Dry Weight Dolomite (Inelastic Capture Closure) {F13.4}
 WPYR.V/V                :   WEIGHT FRACTION PYRITE
 WQFM.V/V                :   WEIGHT FRACTION QUARTZ AND FELDSPAR AND MICA
 ECGR.GAPI               :   GAMMA-RAY {F13.5}
 HCGR.GAPI               :   (HNGS-BA) (6IN) GAMMA RAY CONTRIBUTION FROM THORIUM AND POTASSIUM
 SGR .GAPI               :   (HNGS-BA) (6IN) SPECTROSCOPY GAMMA RAY
 HURA.PPM                :   URANIUM CONCENTRATION
 HTHO.PPM                :   THORIUM CONCENTRATION
 HFK .V/V                :   POTASSIUM CONCENTRATION
 WTOC.V/V                :   Dry Weight Total Organic Carbon
 WCARB.V/V               :   Weight fraction of carbonate
 WQTZ.V/V                :   Weight fraction of quartz
 RHGE.KG/M3              :   MATRIX DENSITY FROM ELEMENTAL CONCENTRATIONS - SPECTROLITH WALK2 MODEL 
 HCAL1.MM                :   Caliper  (HDRS-H[1])  (1IN) CALIPER
 HCAL2.MM                :   Caliper  (HDRS-H[2])  (1IN) CALIPER
 HD1_PPC1.MM             :   PPC1 ELLIPSE HOLE DIAMETER 1 {F14.5}
 HD2_PPC1.MM             :   PPC1 ELLIPSE HOLE DIAMETER 2 {F14.5}
 GR_ND.GAPI  42 310 00 00:   Gamma Ray
 SP  .MV     05 010 01 00:   Spontaneous Potential
 DTP .US/M   60 520 00 00:   Compressional Wave
 DEN .KG/M3  42 350 01 00:   HRDD STANDARD RESOLUTION FORMATION DENSITY
 PE  .B/E                :   HRDD Standard Resolution Formation Photoelectric Factor [F12.3]
 HDRA.KG/M3              :   HRDD DENSITY CORRECTION
 PDS .V/V                :   DENSITY POROSITY WITH SANDSTONE CALIBRATION
 PDL .V/V                :   DENSITY POROSITY WITH LIMESTONE CALIBRATION
 POS .V/V                :   NEUTRON POROSITY WITH SANDSTONE CALIBRATION
 POL .V/V                :   NEUTRON POROSITY WITH LIMESTONE CALIBRATION
 SPHI.V/V                :   Sonic Porosity [F12.3]
 PHIZ.V/V                :   INTERGRANULAR POROSITY
 RS  .OHMM               :   ARRAY INDUCTION FOUR FOOT RESISTIVITY A20
 RM  .OHMM               :   ARRAY INDUCTION FOUR FOOT RESISTIVITY A30
 RD  .OHMM   07 120 46 00:   Deep Induction Resistivity
~PARAMETER INFORMATION
#MNEM.UNIT          VALUE    DESCRIPTION
#----------   ------------   ------------------------------
 EKB .M          516.8000:   Kelly bushing
 EGL .M          518.9000:   Ground level
 EDF .M          516.5000:   Drilling floor
 EPD .M          518.9000:   Permanent datum
 TD  .M            0.0000:   Total depth
 NRUN.                  1:   Number of Runs
#--RUN 1---   ------------   The following are for Run 1---
 RUN .                  1:   Run 1
 DATE.        12-JAN-2023:   Logging Date
 TMAX.degC      105.00000:   (Borehole)      Max Recorded Temp
~Tops
SCATTER                           612.0
GARBUTT                           659.0
FANTASQUE                         696.5
MATTSON                           704.0
DEBOLT                            734.0
SHUNDER                           989.0
PEKISKO                          1109.0
BANFF                            1160.0
EXSHAW                           1690.0
KOTCHO                           1720.0
TETCHO                           1974.5
TROUT RIVER                      1986.0
KAKISA                           2051.5
FORT SIMPSON                     2101.0
MUSKWA                           2949.5
OTTER PARK                       3026.0
KLUA                             3083.5
EVIE                             3098.0
KEG RIVER                        3148.0
~A  DEPTH     DWTC      WCLAY       WCLC       WDOL       WPYR       WQFM       ECGR       HCGR        SGR       HURA       HTHO        HFK       WTOC      WCARB     WQTZ       RHGE      HCAL1      HCAL2   HD1_PPC1   HD2_PPC1      GR_ND         SP        DTP        DEN         PE       HDRA        PDS        PDL        POS        POL       SPHI       PHIZ         RS         RM         RD
# ...
 3127.6000     0.0955     0.0819     0.2116     0.0091     0.0155     0.6818   225.5555    29.5811   188.6097    20.8859     3.7182     0.9837     0.0691     0.2208     0.3393  2689.6736   201.2658   201.3475   199.7152   199.9646   201.6120 -1186.2181   248.9950  2410.2192     3.5130    -2.4719     0.1453     0.1753     0.1224     0.0790     0.1638     0.1485   280.4384   224.4958   203.3465
 3127.8000     0.0964     0.0612     0.2102     0.0010     0.0131     0.7145   240.6413    31.0529   211.3669    23.5819     3.8608     1.0399     0.0715     0.2112     0.3435  2688.4248   201.1508   201.7556   199.9160   199.9693   215.0081 -1184.6492   252.0573  2427.5232     3.6154     0.2754     0.1348     0.1652     0.1156     0.0730     0.1694     0.1340   317.1141   249.4617   239.4023
 3128.0000     0.0984     0.0512     0.1811     0.0082     0.0148     0.7447   247.9526    31.0478   216.1288    24.1633     4.0621     1.0052     0.0745     0.1893     0.3529  2691.0386   201.3449   201.2158   199.7518   200.2968   221.5367 -1186.7596   255.6860  2424.6208     3.5400     0.2781     0.1366     0.1669     0.0972     0.0565     0.1756     0.1224   369.1606   287.0195   277.1886
 3128.2000     0.1014     0.0569     0.1400     0.0411     0.0186     0.7466   266.5982    28.8115   214.8606    24.2030     3.7392     0.9380     0.0785     0.1808     0.3569  2697.8799   201.4463   201.5612   199.7277   200.2319   238.4265 -1189.2205   256.6095  2401.0454     3.4173    -3.9271     0.1509     0.1807     0.1102     0.0686     0.1775     0.1352   361.7893   288.9292   286.5111
 3128.4000     0.1053     0.0724     0.1227     0.0608     0.0213     0.7228   318.0956    32.2847   241.5327    27.2983     4.3646     1.0213     0.0825     0.1835     0.3559  2702.3535   201.5606   202.0349   199.6948   199.8971   284.3332 -1192.5293   260.7386  2382.0386     3.4166    -6.2895     0.1624     0.1918     0.1198     0.0767     0.1846     0.1564   350.4877   285.3773   286.5576
 3128.6000     0.1098     0.0969     0.1380     0.0538     0.0217     0.6896   377.5731    37.9199   292.4161    33.2494     5.1733     1.1915     0.0863     0.1918     0.3515  2702.1274   201.3611   201.9438   199.7105   199.9491   336.9614 -1193.6060   264.0835  2362.0183     3.4035    -6.9252     0.1745     0.2035     0.1415     0.0961     0.1898     0.1726   349.9532   284.4504   279.9036
 3128.8000     0.1129     0.1201     0.1651     0.0299     0.0211     0.6636   404.4011    43.7607   334.9265    37.9753     5.8921     1.3883     0.0890     0.1950     0.3487  2698.9160   201.5258   202.0876   199.7085   199.9424   361.0046 -1193.9211   265.3842  2343.6086     3.3655    -8.6394     0.1857     0.2143     0.1320     0.0872     0.1923     0.1786   356.9721   288.3957   276.8415
 3129.0000     0.1152     0.1317     0.1913     0.0090     0.0210     0.6468   383.6228    46.2248   331.8066    37.3238     6.4713     1.4242     0.0898     0.2003     0.3447  2696.8213   201.5365   201.5897   199.6968   199.9038   342.4225 -1193.4124   262.9713  2335.8293     3.3510    -9.9178     0.1904     0.2188     0.1400     0.0944     0.1883     0.1809   361.0840   291.7251   272.2018
 3129.2000     0.1166     0.1220     0.2234     0.0051     0.0209     0.6285   357.1268    43.2561   303.1472    34.0959     5.9511     1.3506     0.0877     0.2285     0.3308  2698.1167   201.5654   201.5931   199.6857   199.8670   318.8412 -1188.0221   256.9078  2334.1807     3.3261    -9.3848     0.1914     0.2198     0.1555     0.1087     0.1780     0.1839   364.0099   288.3395   272.1820
 3129.4000     0.1164     0.1038     0.2720     0.0030     0.0179     0.6033   318.9553    42.2007   284.0639    31.7473     5.5066     1.3690     0.0826     0.2751     0.3099  2698.6697   201.5048   201.4569   199.9906   199.9584   284.5788 -1181.3840   247.4267  2351.3936     3.3579    -7.4582     0.1810     0.2097     0.1541     0.1074     0.1609     0.1815   357.6965   280.1362   270.8975
 3129.6000     0.1152     0.0855     0.3293     0.0096     0.0129     0.5628   255.1385    36.5936   242.8452    27.1132     4.6055     1.2159     0.0755     0.3389     0.2821  2699.9832   201.3511   201.8189   199.7077   200.1161   227.6724 -1180.5726   244.2540  2407.5671     3.5518    -5.3759     0.1469     0.1769     0.1675     0.1200     0.1548     0.1654   381.2793   294.6373   283.4854
 3129.8000     0.1127     0.0825     0.3689     0.0271     0.0097     0.5114   201.8329    27.6503   180.2133    20.0659     3.3995     0.9324     0.0692     0.3960     0.2576  2703.0459   201.7187   201.8857   199.6854   200.5749   180.0392 -1178.7537   240.1790  2471.6233     3.8195    -5.0250     0.1081     0.1394     0.1305     0.0855     0.1469     0.1336   442.9779   335.3829   329.2130
 3130.0000     0.1112     0.0877     0.3732     0.0251     0.0110     0.5031   182.6506    22.1742   138.8186    15.2691     2.9291     0.7131     0.0666     0.3988     0.2584  2702.7319   202.1027   201.5437   199.6979   199.6231   163.0530 -1178.5425   240.0951  2490.7964     4.0348    -7.4432     0.0965     0.1282     0.1178     0.0743     0.1467     0.1035   549.6402   404.0545   405.5669
 3130.2000     0.1102     0.0958     0.3418     0.0136     0.0155     0.5333   192.2446    23.5137   145.3601    15.9301     3.1024     0.7568     0.0687     0.3554     0.2800  2699.6050   201.6920   201.5379   199.7047   200.1514   171.5772 -1182.6971   241.5875  2465.5005     4.0548    -7.6518     0.1118     0.1430     0.1282     0.0842     0.1497     0.1038   694.6697   488.7928   491.1858
 3130.4000     0.1098     0.0957     0.2893     0.0083     0.0190     0.5877   218.0551    28.1007   172.6363    18.8094     4.0116     0.8525     0.0739     0.2976     0.3084  2696.0403   201.3898   201.9229   199.7249   200.6707   194.6834 -1187.1854   245.6031  2427.1440     3.8290    -7.3846     0.1350     0.1654     0.1256     0.0818     0.1574     0.1249   824.5840   549.3846   560.0638
 3130.6000     0.1097     0.0888     0.2346     0.0077     0.0193     0.6497   236.2861    29.1053   190.2508    20.9491     4.1690     0.8806     0.0800     0.2423     0.3347  2692.2507   201.5458   202.2381   199.6825   199.9628   210.9513 -1188.8569   252.0351  2387.4263     3.3818    -6.5563     0.1591     0.1886     0.1143     0.0713     0.1693     0.1501   884.6718   567.4208   552.0851
 3130.8000     0.1087     0.0913     0.1926     0.0047     0.0163     0.6952   253.5489    29.9440   206.1552    22.7699     4.1127     0.9361     0.0837     0.1973     0.3544  2687.7314   201.2500   202.0429   199.4965   200.0689   226.4004 -1191.0684   256.2925  2353.2590     3.0054    -4.7076     0.1798     0.2086     0.1301     0.0860     0.1769     0.1643   872.3733   556.9356   552.9812
 3131.0000     0.1070     0.1017     0.1685     0.0029     0.0145     0.7125   287.0362    34.2526   243.8698    27.1076     5.0123     1.0183     0.0851     0.1713     0.3647  2685.1465   201.8048   201.7264   199.7107   200.3163   256.1895 -1192.5206   258.9791  2346.3779     2.8576    -1.6752     0.1840     0.2126     0.1257     0.0820     0.1816     0.1716   838.3705   536.8722   554.7444
 3131.2000     0.1053     0.1064     0.1603     0.0028     0.0143     0.7163   318.3486    36.7529   274.0915    30.6654     5.7373     1.0312     0.0846     0.1631     0.3673  2684.6455   201.2128   201.7335   200.0060   199.9819   284.3243 -1189.0829   260.4762  2356.8789     2.8413     0.0814     0.1776     0.2065     0.1190     0.0759     0.1840     0.1703   815.0373   521.9604   543.3723
 3131.4000     0.1046     0.0986     0.1678     0.0047     0.0160     0.7128   325.1582    36.4841   267.8163    29.8313     5.8059     1.0048     0.0826     0.1725     0.3631  2686.2795   201.2792   201.6810   199.7152   199.9646   290.2394 -1190.9381   257.9485  2364.8701     2.8356     0.8693     0.1728     0.2018     0.1164     0.0737     0.1798     0.1668   788.0891   505.3683   522.8958
 3131.6000     0.1043     0.0819     0.1940     0.0064     0.0175     0.7003   319.7021    36.3054   250.6285    27.6442     5.7095     1.0115     0.0798     0.2004     0.3511  2688.8145   201.1097   201.5453   199.8788   200.0913   285.5393 -1189.0311   254.4444  2360.5620     2.8871    -3.3807     0.1754     0.2044     0.1201     0.0771     0.1737     0.1704   768.5081   486.1964   499.4836
