~VERSION INFORMATION
 VERS.               2.10:   CWLS LOG ASCII STANDARD - VERSION 2.10
 WRAP.                 NO:   ONE LINE PER DEPTH STEP
~WELL INFORMATION
#MNEM.UNIT      DATA TYPE    INFORMATION
#----------   ------------   ------------------------------
 STRT.M         2800.0000:   Start depth
 STOP.M         3210.0000:   Stop depth
 STEP.M            0.2000:   Step length
 NULL.          -999.2500:   No value
 WELL.                   :   Well
 FLD .                   :   Field
 LOC .                   :   Location
 SRVC.                   :   Service company
 DATE.        12-JAN-2023:   logging date
 WSTA.           Location:   Well status
~CURVE INFORMATION
#MNEM.UNIT       API CODE    CURVE DESCRIPTION
#----------   ------------   ------------------------------
 DEPT.M                  :   DEPTH
 DWTC.V/V                :   Dry Weight Total Carbon (Borehole corrected) {F13.4}
 WCLAY.V/V               :   Dry Weight of Clay
 WCLC.V/V                :   Dry Weight Calcite (Inelastic Capture Closure) {F13.4}
 WDOL.V/V                :   Dry Weight Dolomite (Inelastic Capture Closure) {F13.4}
 WPYR.V/V                :   WEIGHT FRACTION PYRITE
 WQFM.V/V                :   WEIGHT FRACTION QUARTZ AND FELDSPAR AND MICA
 ECGR.GAPI               :   GAMMA-RAY {F13.5}
 HCGR.GAPI               :   (HNGS-BA) (6IN) GAMMA RAY CONTRIBUTION FROM THORIUM AND POTASSIUM
 SGR .GAPI               :   (HNGS-BA) (6IN) SPECTROSCOPY GAMMA RAY
 HURA.PPM                :   URANIUM CONCENTRATION
 HTHO.PPM                :   THORIUM CONCENTRATION
 HFK .V/V                :   POTASSIUM CONCENTRATION
 WTOC.V/V                :   Dry Weight Total Organic Carbon
 WCARB.V/V               :   Weight fraction of carbonate
 WQTZ.V/V                :   Weight fraction of quartz
 RHGE.KG/M3              :   MATRIX DENSITY FROM ELEMENTAL CONCENTRATIONS - SPECTROLITH WALK2 MODEL 
 HCAL1.MM                :   Caliper  (HDRS-H[1])  (1IN) CALIPER
 HCAL2.MM                :   Caliper  (HDRS-H[2])  (1IN) CALIPER
 HD1_PPC1.MM             :   PPC1 ELLIPSE HOLE DIAMETER 1 {F14.5}
 HD2_PPC1.MM             :   PPC1 ELLIPSE HOLE DIAMETER 2 {F14.5}
 GR_ND.GAPI  42 310 00 00:   Gamma Ray
 SP  .MV     05 010 01 00:   Spontaneous Potential
 DTP .US/M   60 520 00 00:   Compressional Wave
 DEN .KG/M3  42 350 01 00:   HRDD STANDARD RESOLUTION FORMATION DENSITY
 PE  .B/E                :   HRDD Standard Resolution Formation Photoelectric Factor [F12.3]
 HDRA.KG/M3              :   HRDD DENSITY CORRECTION
 PDS .V/V                :   DENSITY POROSITY WITH SANDSTONE CALIBRATION
 PDL .V/V                :   DENSITY POROSITY WITH LIMESTONE CALIBRATION
 POS .V/V                :   NEUTRON POROSITY WITH SANDSTONE CALIBRATION
 POL .V/V                :   NEUTRON POROSITY WITH LIMESTONE CALIBRATION
 SPHI.V/V                :   Sonic Porosity [F12.3]
 PHIZ.V/V                :   INTERGRANULAR POROSITY
 RS  .OHMM               :   ARRAY INDUCTION FOUR FOOT RESISTIVITY A20
 RM  .OHMM               :   ARRAY INDUCTION FOUR FOOT RESISTIVITY A30
 RD  .OHMM   07 120 46 00:   Deep Induction Resistivity
~PARAMETER INFORMATION
#MNEM.UNIT          VALUE    DESCRIPTION
#----------   ------------   ------------------------------
 EKB .M          516.8000:   Kelly bushing
 EGL .M          518.9000:   Ground level
 EDF .M          516.5000:   Drilling floor
 EPD .M          518.9000:   Permanent datum
 TD  .M            0.0000:   Total depth
 NRUN.                  1:   Number of Runs
#--RUN 1---   ------------   The following are for Run 1---
 RUN .                  1:   Run 1
 DATE.        12-JAN-2023:   Logging Date
 TMAX.degC      105.00000:   (Borehole)      Max Recorded Temp
~Tops
SCATTER                           612.0
GARBUTT                           659.0
FANTASQUE                         696.5
MATTSON                           704.0
DEBOLT                            734.0
SHUNDER                           989.0
PEKISKO                          1109.0
BANFF                            1160.0
EXSHAW                           1690.0
KOTCHO                           1720.0
TETCHO                           1974.5
TROUT RIVER                      1986.0
KAKISA                           2051.5
FORT SIMPSON                     2101.0
MUSKWA                           2949.5
OTTER PARK                       3026.0
KLUA                             3083.5
EVIE                             3098.0
KEG RIVER                        3148.0
~A  DEPTH     DWTC      WCLAY       WCLC       WDOL       WPYR       WQFM       ECGR       HCGR        SGR       HURA       HTHO        HFK       WTOC      WCARB     WQTZ       RHGE      HCAL1      HCAL2   HD1_PPC1   HD2_PPC1      GR_ND         SP        DTP        DEN         PE       HDRA        PDS        PDL        POS        POL       SPHI       PHIZ         RS         RM         RD
 2800.0000  -999.2500  -999.2500  -999.2500  -999.2500  -999.2500  -999.2500   129.0656    84.9205   104.3767     2.9202    13.2245     2.3892  -999.2500     0.0000  -999.2500  -999.2500   199.1789   201.2492   204.2124   205.0145   114.4775 -1206.0525   265.0054  2681.3833     4.4903     0.4011    -0.0190     0.0167     0.2809     0.2295     0.1917     0.1606     5.0486     4.9524     4.8768
 2800.2000  -999.2500  -999.2500  -999.2500  -999.2500  -999.2500  -999.2500   129.7310    86.4395   106.5790     3.0432    13.4859     2.4277  -999.2500     0.0000  -999.2500  -999.2500   200.3449   201.8245   205.5083   204.4287   114.7364 -1205.2009   264.6707  2684.8281     4.2818     2.7386    -0.0211     0.0147     0.2832     0.2315     0.1911     0.1571     4.9516     4.8329     4.7182
 2800.4000  -999.2500  -999.2500  -999.2500  -999.2500  -999.2500  -999.2500   124.2702    84.9914   106.5780     3.1529    12.4702     2.5218  -999.2500     0.0000  -999.2500  -999.2500   199.8073   200.4689   204.7348   204.7739   110.3414 -1204.4015   263.6587  2694.1877     4.0908     3.4387    -0.0268     0.0092     0.2617     0.2102     0.1895     0.1536     5.0051     4.8660     4.7064
 2800.6000  -999.2500  -999.2500  -999.2500  -999.2500  -999.2500  -999.2500   121.8566    83.0209   104.6141     3.0811    12.0333     2.4887  -999.2500     0.0000  -999.2500  -999.2500   199.1434   200.6136   204.3244   204.5407   108.3474 -1204.7642   264.3800  2688.2422     4.1317     2.2891    -0.0232     0.0127     0.2693     0.2176     0.1907     0.1521     5.0308     4.9054     4.7133
 2800.8000  -999.2500  -999.2500  -999.2500  -999.2500  -999.2500  -999.2500   122.0831    86.0397   106.1193     2.8167    12.6555     2.5477  -999.2500     0.0000  -999.2500  -999.2500   199.2024   201.1556   205.1172   205.0794   108.6172 -1204.1642   267.1430  2673.4060     4.3884     0.8622    -0.0142     0.0214     0.2747     0.2230     0.1950     0.1541     5.0537     4.9491     4.7086
 2801.0000  -999.2500  -999.2500  -999.2500  -999.2500  -999.2500  -999.2500   123.9683    91.5910   108.9270     2.6026    13.6740     2.6775  -999.2500     0.0000  -999.2500  -999.2500   198.5901   201.1510   203.9505   205.9971   110.1019 -1203.9493   267.5567  2666.8130     4.5347     0.1075    -0.0102     0.0253     0.2691     0.2176     0.1958     0.1554     4.8155     4.7387     4.5086
 2801.2000  -999.2500  -999.2500  -999.2500  -999.2500  -999.2500  -999.2500   128.7572    94.3450   110.4628     2.4812    14.2180     2.7353  -999.2500     0.0000  -999.2500  -999.2500   200.4085   201.7183   204.4013   205.8242   114.0887 -1203.0956   268.2767  2679.2078     4.3979     1.0278    -0.0177     0.0180     0.2601     0.2087     0.1970     0.1546     4.6370     4.5761     4.3248
 2801.4000  -999.2500  -999.2500  -999.2500  -999.2500  -999.2500  -999.2500   134.9401    96.1349   109.3760     2.0171    14.8686     2.7223  -999.2500     0.0000  -999.2500  -999.2500   201.4436   200.5590   204.8110   205.4221   119.5008 -1203.1608   270.0565  2689.6538     4.2406     2.3832    -0.0240     0.0119     0.2833     0.2314     0.1995     0.1567     4.4673     4.4055     4.2224
 2801.6000  -999.2500  -999.2500  -999.2500  -999.2500  -999.2500  -999.2500   130.5079    98.1371   108.8893     1.7571    15.8209     2.6691  -999.2500     0.0019  -999.2500  -999.2500   201.0349   200.1112   205.1308   204.6812   115.5853 -1203.6898   270.2490  2685.3376     4.2219     2.0435    -0.0214     0.0144     0.2745     0.2230     0.2001     0.1594     4.4245     4.3569     4.2070
 2801.8000  -999.2500  -999.2500  -999.2500  -999.2500  -999.2500  -999.2500   125.0862   101.0644   108.8817     1.4580    16.3806     2.7338  -999.2500     0.0047  -999.2500  -999.2500   199.9387   201.2158   204.8414   205.1293   110.8825 -1203.5294   270.4104  2680.1047     4.2993     1.2571    -0.0182     0.0175     0.2808     0.2293     0.2004     0.1617     4.4286     4.3472     4.2235
 2802.0000  -999.2500  -999.2500  -999.2500  -999.2500  -999.2500  -999.2500   128.5903   101.1886   107.8821     1.3989    16.2526     2.7624  -999.2500     0.0000  -999.2500  -999.2500   199.5108   201.5779   205.3195   205.7583   114.0693 -1202.6703   269.6810  2690.0151     4.4455     4.4972    -0.0243     0.0117     0.2832     0.2317     0.1992     0.1651     4.4606     4.3757     4.2843
 2802.2000  -999.2500  -999.2500  -999.2500  -999.2500  -999.2500  -999.2500   133.0929   102.4091   108.3101     1.4489    16.6226     2.7660  -999.2500     0.0000  -999.2500  -999.2500   199.7375   201.7950   205.1400   206.5209   118.1075 -1201.9515   268.5959  2707.8584     4.5318     9.3008    -0.0351     0.0012     0.2730     0.2217     0.1975     0.1649     4.5293     4.4504     4.3491
 2802.4000  -999.2500  -999.2500  -999.2500  -999.2500  -999.2500  -999.2500   129.4334   100.9604   107.1814     1.4902    16.4436     2.7174  -999.2500     0.0000  -999.2500  -999.2500   200.8587   201.8665   205.2973   206.3564   114.8082 -1201.3002   268.4829  2716.9658     4.4407     8.8354    -0.0406    -0.0041     0.2942     0.2429     0.1973     0.1695     4.5888     4.5228     4.4102
 2802.6000  -999.2500  -999.2500  -999.2500  -999.2500  -999.2500  -999.2500   124.5583    97.6067   104.5202     1.5591    15.9442     2.6190  -999.2500     0.0000  -999.2500  -999.2500   200.0636   199.9681   204.9714   205.2786   110.5377 -1201.9752   268.5122  2705.7051     4.3017     3.6685    -0.0338     0.0025     0.2739     0.2225     0.1974     0.1642     4.6410     4.5841     4.4518
 2802.8000  -999.2500  -999.2500  -999.2500  -999.2500  -999.2500  -999.2500   121.2781    95.7869   103.3392     1.6123    16.0228     2.5060  -999.2500     0.0000  -999.2500  -999.2500   199.8724   200.6139   204.8291   203.8581   107.5959 -1202.6974   266.2310  2695.5913     4.2766     1.3838    -0.0276     0.0084     0.2685     0.2170     0.1937     0.1599     4.6773     4.6217     4.4686
 2803.0000  -999.2500  -999.2500  -999.2500  -999.2500  -999.2500  -999.2500   119.5792    96.0599   105.2274     1.7626    15.7977     2.5594  -999.2500     0.0000  -999.2500  -999.2500   199.5881   201.3637   205.0797   205.3235   106.0330 -1202.8148   266.0591  2696.1626     4.4224     1.5610    -0.0280     0.0081     0.2708     0.2191     0.1934     0.1569     4.7002     4.6344     4.4616
 2803.2000  -999.2500  -999.2500  -999.2500  -999.2500  -999.2500  -999.2500   117.2061    95.4821   105.0329     1.8272    15.2254     2.6255  -999.2500     0.0103  -999.2500  -999.2500   199.0014   201.5439   204.8142   205.1142   103.8719 -1202.2729   266.2686  2693.2815     4.6074     4.1853    -0.0262     0.0098     0.2720     0.2205     0.1937     0.1570     4.7108     4.6307     4.4352
 2803.4000  -999.2500  -999.2500  -999.2500  -999.2500  -999.2500  -999.2500   121.1104    93.9470   105.9011     2.1124    14.4690     2.6707  -999.2500     0.0261  -999.2500  -999.2500   198.2338   201.2609   204.1969   204.7799   107.2394 -1200.3936   266.9005  2699.1902     4.6974    13.8661    -0.0298     0.0063     0.2839     0.2324     0.1948     0.1603     4.6938     4.5978     4.3985
 2803.6000  -999.2500  -999.2500  -999.2500  -999.2500  -999.2500  -999.2500   126.1082    96.8006   105.0411     1.7033    15.3368     2.6787  -999.2500     0.0043  -999.2500  -999.2500   198.1713   201.6857   203.5922   205.7020   111.9319 -1200.9004   267.7188  2701.8669     4.6944    23.6592    -0.0314     0.0048     0.2721     0.2206     0.1961     0.1594     4.6580     4.5534     4.3517
 2803.8000  -999.2500  -999.2500  -999.2500  -999.2500  -999.2500  -999.2500   124.7952    94.2647   102.4934     1.6349    15.0647     2.5864  -999.2500     0.0000  -999.2500  -999.2500   197.7358   200.3820   203.9813   204.5825   110.5386 -1200.0826   267.3814  2709.1841     4.6357    25.5067    -0.0359     0.0005     0.2695     0.2181     0.1955     0.1594     4.6283     4.5225     4.3153
 2804.0000  -999.2500  -999.2500  -999.2500  -999.2500  -999.2500  -999.2500   122.2164    93.1610   102.8860     1.8315    14.1504     2.6821  -999.2500     0.0023  -999.2500  -999.2500   199.2946   200.1686   205.3927   204.6220   108.1660 -1199.7297   267.3278  2705.5510     4.5524    15.9320    -0.0337     0.0026     0.2792     0.2276     0.1954     0.1604     4.6217     4.5167     4.3063
